Name_TFRRS,Div,Men,Women,IPEDSID,Name_Full,Latitude,Longitude,Enrollment
Abilene Christian,NCAA DI,1,1,222178,Abilene Christian University,32.46890331,-99.7097646,5204
Academy of Art,NCAA DII,1,1,108232,Academy Of Art University,37.78778834,-122.4006942,10616
Adams State,NCAA DII,1,1,126182,Adams State University,37.47601126,-105.8809004,3110
Adelphi,NCAA DII,1,1,188429,Adelphi University,40.72146834,-73.65334551,8146
Adrian,NCAA DIII,1,1,168528,Adrian College,41.8986777,-84.05989906,1856
Agnes Scott,NCAA DIII,0,1,138600,Agnes Scott College,33.76933201,-84.29546243,1030
Alabama A&M,NCAA DI,0,1,100654,Alabama A & M University,34.78333417,-86.56852983,6106
Alabama State,NCAA DI,1,1,100724,Alabama State University,32.36431724,-86.295715,4413
Albany College of Pharmacy,Other,1,1,188526,Albany College Of Pharmacy And Health Sciences,42.65195554,-73.77858324,1331
Albany State,NCAA DII,0,1,138716,Albany State University,31.57193315,-84.14338871,6371
Albion,NCAA DIII,1,1,168546,Albion College,42.24458865,-84.7461054,1533
Alcorn State,NCAA DI,1,1,175342,Alcorn State University,31.8771685,-91.14286024,3658
Alderson Broaddus,NCAA DII,1,1,237118,Alderson Broaddus University,39.15758532,-80.04932522,911
Alfred,NCAA DIII,1,1,188641,Alfred University,42.25330293,-77.78757675,2302
Alice Lloyd,Other,1,1,156189,Alice Lloyd College,37.33582655,-82.87402235,644
Allegany College of MD,Other,1,0,161688,Allegany College Of Maryland,39.65266504,-78.72979757,2585
Allegheny,NCAA DIII,1,1,210669,Allegheny College,41.64727512,-80.14572582,1771
Allen CC,Other,1,1,154642,Allen County Community College,37.93806235,-95.39633214,2540
Alma,NCAA DIII,1,1,168591,Alma College,43.37928467,-84.67011943,1433
Alpena CC,Other,1,0,168607,Alpena Community College,45.0816194,-83.44507788,1429
Alvernia,NCAA DIII,1,1,210775,Alvernia University,40.31007197,-75.93679588,2792
Alverno,NCAA DIII,0,1,238193,Alverno College,42.98304236,-87.96469911,1851
American Int'l,NCAA DII,1,1,445027,American International College,42.11272499,-72.55849818,3152
American River,Other,1,0,109208,American River College,38.64972801,-121.345984,31366
American,NCAA DI,1,1,131159,American University,38.93693277,-77.08895748,14311
Amherst,NCAA DIII,1,1,164465,Amherst College,42.3724341,-72.51845881,1855
Ancilla College,Other,0,1,150048,Ancilla College,41.33801131,-86.44545132,415
Anderson (S.C.),NCAA DII,1,1,217633,Anderson University,34.51514474,-82.63919241,3429
Anderson (Ind.),NCAA DIII,1,1,150066,Anderson University,40.11220011,-85.66339438,1722
Angelo State,NCAA DII,1,1,222831,Angelo State University,31.44105867,-100.466441,10387
Antelope Valley,Other,1,1,109350,Antelope Valley College,34.67617695,-118.1862095,14239
Appalachian State,NCAA DI,1,1,197869,Appalachian State University,36.21269709,-81.67753918,19108
Aquinas,Other,1,1,168786,Aquinas College,42.96062322,-85.62525958,1758
Arcadia,NCAA DIII,1,1,211088,Arcadia University,40.09193961,-75.16523814,3662
Arizona Christian,Other,1,1,105899,Arizona Christian University,33.59515437,-112.0262073,776
Arizona State,NCAA DI,1,1,104151,Arizona State University-Tempe,33.41729307,-111.9354918,51585
Arkansas State,NCAA DI,1,1,106458,Arkansas State University-Main Campus,35.84362674,-90.67789216,13709
Arkansas Tech,NCAA DII,0,1,106467,Arkansas Tech University,35.29519927,-93.13232591,12101
Asbury University,Other,1,1,156213,Asbury University,37.86287135,-84.66279234,1940
Ashland,NCAA DII,1,1,201104,Ashland University,40.86166529,-82.32025681,6627
Assumption,NCAA DII,1,1,164562,Assumption College,42.29547791,-71.82839388,2428
Auburn,NCAA DI,1,1,100858,Auburn University,32.60018985,-85.49239842,30440
Auburn Montgomery,NCAA DII,1,1,100830,Auburn University At Montgomery,32.36994333,-86.17738542,5211
Augsburg,NCAA DIII,1,0,173045,Augsburg University,44.96563105,-93.24142608,3419
Augusta,NCAA DII,1,1,482149,Augusta University,33.47069016,-81.98953679,8458
Augustana (Ill.),NCAA DIII,1,1,143084,Augustana College,41.50316049,-90.54828278,2543
Augustana (S.D.),NCAA DII,1,1,219000,Augustana University,43.52279439,-96.73920728,2133
Aurora,NCAA DIII,1,1,143118,Aurora University,41.75435146,-88.34944185,6005
Austin Peay,NCAA DI,1,1,219602,Austin Peay State University,36.53333023,-87.35411235,10954
Ave Maria,Other,1,1,446048,Ave Maria University,26.33712532,-81.44105372,1122
Averett,NCAA DIII,1,0,231420,Averett University,36.57726658,-79.41322113,961
Avila,Other,1,1,176628,Avila University,38.91342021,-94.59179821,1649
Azusa Pacific,NCAA DII,1,1,109785,Azusa Pacific University,34.13053809,-117.8882716,10095
Babson,NCAA DIII,1,1,164580,Babson College,42.29657279,-71.26948229,3357
Baker,Other,1,1,154688,Baker University,38.7773169,-95.18820497,2769
Bakersfield,Other,1,1,109819,Bakersfield College,35.40897124,-118.9716455,24589
Baldwin Wallace,NCAA DIII,1,1,201195,Baldwin Wallace University,41.37327385,-81.84911474,3709
Ball State,NCAA DI,0,1,150136,Ball State University,40.19996012,-85.40874838,21884
Bard,NCAA DIII,1,1,189088,Bard College,42.02150133,-73.91007065,2207
Barton,NCAA DII,1,1,154697,Barton County Community College,38.40275328,-98.73054472,4237
Bates,NCAA DIII,1,1,235671,Bates Technical College,47.25170926,-122.4467829,4445
Baylor,NCAA DI,1,1,223232,Baylor University,31.54613361,-97.11844521,17217
Bellarmine,NCAA DI,1,1,156286,Bellarmine University,38.21912531,-85.70493762,3369
Bellevue,Other,1,1,180814,Bellevue University,41.15020037,-95.91765501,9621
Belmont Abbey,NCAA DII,1,1,197984,Belmont Abbey College,35.26130071,-81.04187228,1556
Belmont,NCAA DI,1,1,219709,Belmont University,36.13391537,-86.7947061,8260
Beloit,NCAA DIII,1,1,238333,Beloit College,42.50358762,-89.0317197,1275
Bemidji State,NCAA DII,0,1,173124,Bemidji State University,47.48254679,-94.87454988,5111
Benedict,NCAA DII,1,1,217721,Benedict College,34.01297724,-81.02038653,2165
Benedictine (Kan.),Other,1,1,154712,Benedictine College,39.57365246,-95.1123823,2124
Benedictine (Ill.),NCAA DIII,1,0,145619,Benedictine University,41.77643532,-88.09594509,4940
Bentley,NCAA DII,1,1,164739,Bentley University,42.38877234,-71.2201316,5460
Berea,NCAA DIII,1,1,156295,Berea College,37.57400622,-84.28920299,1673
Bergen CC,Other,1,0,183743,Bergen Community College,40.95179885,-74.08876268,13352
Berry,NCAA DIII,1,1,139144,Berry College,34.28921859,-85.18907886,2014
Bethany (W.V.),NCAA DIII,0,1,237181,Bethany College,40.20566133,-80.56100808,581
Bethany (Kan.),Other,1,1,154721,Bethany College,38.57863396,-97.67320851,891
Bethany Lutheran,NCAA DIII,1,1,173142,Bethany Lutheran College,44.16648886,-93.99069926,739
Bethel (Ind.),Other,1,1,150145,Bethel College-Indiana,41.6780972,-86.1916621,1513
Bethel (Kan.),Other,1,1,154749,Bethel College-North Newton,38.07519888,-97.34373339,444
Bethel (Tenn.),Other,1,1,219718,Bethel University,36.13934307,-88.51621492,5407
Bethel (Minn.),NCAA DIII,1,1,173160,Bethel University,45.05786605,-93.16034374,3692
Bethune-Cookman,NCAA DI,1,1,132602,Bethune-Cookman University,29.21055595,-81.03159502,3773
Binghamton,NCAA DI,1,1,196079,Binghamton University,42.08801959,-75.9711419,17768
Biola,NCAA DII,1,1,110097,Biola University,33.9039869,-118.0173664,6109
Birmingham-Southern,NCAA DIII,1,0,100937,Birmingham Southern College,33.51306708,-86.85192332,1268
Black Hills St.,NCAA DII,1,1,219046,Black Hills State University,44.49513074,-103.8717431,4035
Blackburn,NCAA DIII,1,1,143288,Blackburn College,39.28828541,-89.87225388,566
Bloomfield,NCAA DII,1,1,183822,Bloomfield College,40.79423432,-74.19592733,1685
Bloomsburg,NCAA DII,1,1,211158,Bloomsburg University Of Pennsylvania,41.00797301,-76.44641947,8909
Blue Mountain,Other,1,1,208275,Blue Mountain Community College,45.6772731,-118.8169096,1681
Bluefield,Other,1,1,231554,Bluefield College,37.245917,-81.24457768,1156
Bluefield St.,NCAA DII,1,1,237215,Bluefield State College,37.26574531,-81.23900385,1275
Bluffton,NCAA DIII,1,1,201371,Bluffton University,40.89701563,-83.89764831,770
Bob Jones,Other,1,1,217749,Bob Jones University,34.87405904,-82.36324682,3005
Boise State,NCAA DI,1,1,142115,Boise State University,43.6044268,-116.2057706,25504
Boston College,NCAA DI,1,1,164924,Boston College,42.33621615,-71.16921125,14720
Boston University,NCAA DI,1,1,164988,Boston University,42.34961658,-71.09979344,34657
Bowdoin,NCAA DIII,1,1,161004,Bowdoin College,43.90714575,-69.96393251,1828
Bowie State,NCAA DII,1,1,162007,Bowie State University,39.01820702,-76.75973049,6320
Bowling Green,NCAA DI,1,1,201441,Bowling Green State University-Main Campus,41.37701023,-83.63756921,17540
Bradley,NCAA DI,1,1,143358,Bradley University,40.69824575,-89.61683423,5882
Brandeis,NCAA DIII,1,1,165015,Brandeis University,42.36492413,-71.25471243,5800
Brenau,Other,0,1,139199,Brenau University,34.30307555,-83.82151416,2842
Brescia,Other,1,1,156356,Brescia University,37.76885548,-87.11241077,1015
Brevard,NCAA DIII,1,1,198066,Brevard College,35.23762517,-82.72971804,702
Brewton-Parker,Other,1,1,139205,Brewton-Parker College,32.18569685,-82.58615068,826
Briar Cliff,Other,1,1,152992,Briar Cliff University,42.52725165,-96.42775131,1229
Bridgewater (Va.),NCAA DIII,1,1,231581,Bridgewater College,38.37840782,-78.96905358,1857
Bridgewater St.,NCAA DIII,1,1,165024,Bridgewater State University,41.98654899,-70.96433499,10990
BYU,NCAA DI,1,1,230038,Brigham Young University-Provo,40.25083564,-111.6492988,34499
Brookdale CC,Other,1,0,183859,Brookdale Community College,40.32491446,-74.13269575,11856
Brown,NCAA DI,1,1,217156,Brown University,41.82681331,-71.40296124,10257
Bryan,Other,1,1,475583,Bryan University,38.91570439,-92.29263179,-999
Bryant,NCAA DI,1,1,217165,Bryant University,41.92010606,-71.53953996,3788
Bryn Athyn,NCAA DIII,1,1,210492,Bryn Athyn College Of The New Church,40.13134437,-75.06095627,305
Bryn Mawr,NCAA DIII,0,1,211273,Bryn Mawr College,40.02668451,-75.31448823,1690
Bucknell,NCAA DI,1,1,211291,Bucknell University,40.95366438,-76.88522971,3668
Buena Vista,NCAA DIII,1,1,153001,Buena Vista University,42.64227124,-95.20848002,1846
Butler CC,Other,1,1,154800,Butler Community College,37.80667604,-96.8828431,8374
Butler,NCAA DI,1,1,150163,Butler University,39.84014573,-86.17069778,5495
Butte,Other,1,0,110246,Butte College,39.64981463,-121.6447958,10872
Cabrini,NCAA DIII,1,1,211352,Cabrini University,40.054613,-75.37214466,2285
Cairn,NCAA DIII,1,1,215114,Cairn University-Langhorne,40.16580716,-74.90952266,1143
Caldwell,NCAA DII,1,1,183910,Caldwell University,40.83404051,-74.27227758,2189
CBU,NCAA DI,1,1,110361,California Baptist University,33.92894318,-117.4257,10486
Caltech,NCAA DIII,1,1,110404,California Institute Of Technology,34.1391479,-118.125521,2233
Cal Lutheran,NCAA DIII,1,1,110413,California Lutheran University,34.22459449,-118.8788951,4383
Cal Poly,NCAA DI,1,1,110422,California Polytechnic State University-San Luis Obispo,35.3023291,-120.6616429,22013
Cal Poly Pomona,NCAA DII,1,1,110529,California State Polytechnic University-Pomona,34.05430516,-117.8189987,26598
Cal Maritime,Other,1,1,111188,California State University Maritime Academy,38.06907617,-122.23156,1046
CSU Bakersfield,NCAA DI,0,1,110486,California State University-Bakersfield,35.35025623,-119.1045949,10816
Chico State,NCAA DII,1,1,110538,California State University-Chico,39.72801646,-121.8463576,17578
Cal St. East Bay,NCAA DII,1,1,110574,California State University-East Bay,37.65703875,-122.0580386,15628
Fresno State,NCAA DI,1,1,110556,California State University-Fresno,36.81444774,-119.7482306,25137
Cal St. Fullerton,NCAA DI,1,1,110565,California State University-Fullerton,33.88321138,-117.8856805,40280
Long Beach St.,NCAA DI,1,1,110583,California State University-Long Beach,33.78286727,-118.1120135,37466
Cal St. Los Angeles,NCAA DII,1,1,110592,California State University-Los Angeles,34.06689406,-118.1690019,28036
Cal St. Monterey Bay,NCAA DII,1,1,409698,California State University-Monterey Bay,36.654267,-121.7994425,7540
CSUN,NCAA DI,1,1,110608,California State University-Northridge,34.2400853,-118.5292658,40212
Sacramento St.,NCAA DI,1,1,110617,California State University-Sacramento,38.5598955,-121.4224634,31902
Cal St. San B'dino,NCAA DII,0,1,110510,California State University-San Bernardino,34.18307943,-117.3221324,20238
Cal St. San Marcos,NCAA DII,1,1,366711,California State University-San Marcos,33.1281806,-117.1586339,15972
Stanislaus State,NCAA DII,1,1,110495,California State University-Stanislaus,37.52577654,-120.8525431,10577
California (Pa.),NCAA DII,1,1,211361,California University Of Pennsylvania,40.06643689,-79.88446529,7310
Calumet-St. Joseph,Other,1,1,150172,Calumet College Of Saint Joseph,41.67122138,-87.49342901,773
Calvin,NCAA DIII,1,1,169080,Calvin College,42.92988073,-85.58755242,3732
Camden County College,Other,0,1,183938,Camden County College,39.78505305,-75.04044716,9675
Cameron,NCAA DII,1,1,206914,Cameron University,34.60653617,-98.43418012,4290
Campbell,NCAA DI,1,1,198136,Campbell University,35.40936924,-78.73955534,6448
Campbellsville,Other,1,1,156365,Campbellsville University,37.34332236,-85.3489853,11470
Canisius,NCAA DI,1,1,189705,Canisius College,42.92489353,-78.85091589,3244
Capital,NCAA DIII,1,1,201548,Capital University,39.95486518,-82.93784324,3213
Cardinal Stritch,Other,1,0,238430,Cardinal Stritch University,43.1397548,-87.90899564,2148
Carl Albert State College,Other,1,1,206923,Carl Albert State College,35.03824161,-94.6338403,1900
Carl Sandburg College,Other,1,1,143613,Carl Sandburg College,40.98129398,-90.40825111,1860
Carleton,NCAA DIII,1,1,173258,Carleton College,44.46229699,-93.15466197,2097
Carlow,Other,1,1,211431,Carlow University,40.43984193,-79.96395592,2076
Carnegie Mellon,NCAA DIII,1,1,211440,Carnegie Mellon University,40.44363912,-79.94351307,14029
Carroll (Mont.),Other,1,1,180106,Carroll College,46.60213296,-112.0406271,1335
Carroll (Wis.),NCAA DIII,1,1,238458,Carroll University,43.00484238,-88.22813509,3352
Carson-Newman,NCAA DII,1,1,219806,Carson-Newman University,36.121545,-83.4928323,2560
Carthage,NCAA DIII,1,1,238476,Carthage College,42.62248321,-87.82103925,2872
Case Western,NCAA DIII,1,1,201645,Case Western Reserve University,41.50409856,-81.60485684,11890
Castleton,NCAA DIII,1,1,230834,Castleton University,43.60811524,-73.18154678,2196
Catawba,NCAA DII,1,1,198215,Catawba College,35.69166671,-80.48385107,1294
Catholic,NCAA DIII,1,1,131283,Catholic University Of America,38.93575959,-76.99896987,5956
Cazenovia,NCAA DIII,0,1,189848,Cazenovia College,42.93196215,-75.85409873,870
Cedar Crest,NCAA DIII,0,1,211468,Cedar Crest College,40.58689595,-75.51996343,1596
Cedarville,NCAA DII,1,1,201654,Cedarville University,39.75037314,-83.81207833,4150
Centenary (N.J.),NCAA DIII,1,1,183974,Centenary University,40.84867046,-74.83281947,1802
Central Arizona,Other,1,1,104346,Central Arizona College,32.95705405,-111.6525058,5044
Central Baptist,Other,1,1,106713,Central Baptist College,35.08382028,-92.44501746,732
Central Carolina CC,Other,1,1,198251,Central Carolina Community College,35.47187729,-79.14350818,5190
Central College,NCAA DIII,1,1,153108,Central College,41.40049305,-92.92090009,1117
Central Connecticut,NCAA DI,1,1,128771,Central Connecticut State University,41.6902825,-72.77010971,11822
Central Methodist,Other,1,1,176947,Central Methodist University-College Of Liberal Arts And Sciences,39.15053893,-92.68525406,1148
Central Michigan,NCAA DI,1,1,169248,Central Michigan University,43.58669222,-84.7748499,21622
Penn College,NCAA DIII,1,1,211477,Central Penn College,40.30493505,-76.93442606,1047
Central State,NCAA DII,1,1,201690,Central State University,39.71648545,-83.87683075,2099
Central Washington,NCAA DII,1,1,234827,Central Washington University,47.00496795,-120.5377651,12342
Central Wyoming College,Other,1,0,240514,Central Wyoming College,43.03047555,-108.4269828,1974
Centre,NCAA DIII,1,1,156408,Centre College,37.64515022,-84.77920009,1434
Cerritos,Other,1,1,111887,Cerritos College,33.88581677,-118.0972853,21745
Chabot,Other,1,0,111920,Chabot College,37.64247493,-122.1069275,13833
Chadron State,NCAA DII,1,1,180948,Chadron State College,42.82055532,-103.0026569,2448
Chaffey,Other,1,1,111939,Chaffey College,34.14706887,-117.5730883,22969
Chaminade,NCAA DII,1,1,141486,Chaminade University Of Honolulu,21.28998006,-157.8078947,2150
Chapman,NCAA DIII,1,1,111948,Chapman University,33.79371474,-117.8514831,9608
Charleston Southern,NCAA DI,1,1,217688,Charleston Southern University,32.98260939,-80.07132239,3414
Chatham,NCAA DIII,1,1,211556,Chatham University,40.44847562,-79.92609481,2336
Chemeketa CC,Other,0,1,208390,Chemeketa Community College,44.97803002,-122.976674,10151
Chestnut Hill,NCAA DII,1,1,211583,Chestnut Hill College,40.08681762,-75.22887387,1794
Chicago State,NCAA DI,1,1,144005,Chicago State University,41.71886004,-87.61034455,2964
Chowan,NCAA DII,1,1,198303,Chowan University,36.43624992,-77.09911808,1399
Christian Bros.,NCAA DII,1,1,219833,Christian Brothers University,35.12743709,-89.98328976,2034
Christopher Newport,NCAA DIII,1,1,231712,Christopher Newport University,37.06332085,-76.49510505,4957
Citadel,NCAA DI,1,1,217864,Citadel Military College Of South Carolina,32.79698574,-79.96141835,3763
Citrus,Other,1,1,112172,Citrus College,34.13550439,-117.885228,13136
Truman,NCAA DII,1,1,144184,City Colleges Of Chicago-Harry S Truman College,41.96454035,-87.65915564,7673
Clackamas CC,Other,1,0,208406,Clackamas Community College,45.32314038,-122.5742929,6064
Claflin,NCAA DII,1,1,217873,Claflin University,33.49762673,-80.85395906,2172
Claremont-Mudd-Scripps,NCAA DIII,1,1,112251,Claremont Graduate University,34.10358111,-117.713748,1882
Clarion,NCAA DII,0,1,211644,Clarion University Of Pennsylvania,41.20904292,-79.3769105,4864
Clark Atlanta,NCAA DII,1,1,138947,Clark Atlanta University,33.74845574,-84.41387384,3911
Clark College,Other,1,1,234933,Clark College,45.63425544,-122.6522805,9878
Clark (Mass.),NCAA DIII,1,1,165334,Clark University,42.25076074,-71.8236229,3122
Clarke,Other,1,1,153126,Clarke University,42.50882522,-90.69177122,1004
Clarks Summit,NCAA DIII,1,1,211024,Clarks Summit University,41.49620403,-75.684266,768
Clarkson,NCAA DIII,1,1,190044,Clarkson University,44.66374901,-74.99990928,4274
Clayton State,NCAA DII,1,1,139311,Clayton State University,33.59410573,-84.3281865,7038
Cleary,Other,1,1,169327,Cleary University,42.58744311,-83.880407,594
Clemson,NCAA DI,1,1,217882,Clemson University,34.67729035,-82.83449154,24951
Cleveland CC,Other,0,1,198321,Cleveland Community College,35.27978504,-81.49284765,2551
Cleveland St.,NCAA DI,0,1,202134,Cleveland State University,41.50232791,-81.67430837,16069
Clinton CC,Other,1,0,190053,Clinton Community College,44.6481333,-73.44204056,1353
Cloud County CC,Other,1,1,154907,Cloud County Community College,39.55417367,-97.66417371,1839
Clovis CC,Other,1,1,489201,Clovis Community College,36.88690211,-119.7312607,7765
Coastal Carolina,NCAA DI,1,1,218724,Coastal Carolina University,33.79765143,-79.0130155,10641
Coe,NCAA DIII,1,1,153144,Coe College,41.98768845,-91.65736631,1422
Coffeyville CC,Other,1,1,154925,Coffeyville Community College,37.03378485,-95.62134006,1898
Coker,NCAA DII,1,1,217907,Coker College,34.37687975,-80.06786063,1280
Colby,NCAA DIII,1,1,161086,Colby College,44.56425684,-69.66340275,2000
Colby CC,Other,1,1,154934,Colby Community College,39.37811221,-101.0513951,1412
Colby-Sawyer,NCAA DIII,1,1,182634,Colby-Sawyer College,43.41167045,-71.97584006,859
Colgate,NCAA DI,1,1,190099,Colgate University,42.81813041,-75.53519812,2969
Col. of Charleston,NCAA DI,1,1,217819,College Of Charleston,32.78303969,-79.93686802,10783
DuPage,Other,1,1,144865,College Of Dupage,41.84159882,-88.07162353,24900
Mt. St. Vincent,NCAA DIII,1,1,193399,College Of Mount Saint Vincent,40.91282579,-73.90630214,1861
Elms,NCAA DIII,0,1,167394,College Of Our Lady Of The Elms,42.14183788,-72.6015746,1531
St. Benedict,NCAA DIII,0,1,174747,College Of Saint Benedict,45.55860819,-94.31901505,1782
St. Mary (Neb.),Other,0,1,181604,College Of Saint Mary,41.2399909,-96.02139261,1168
San Mateo,Other,1,0,122791,College Of San Mateo,37.53427856,-122.3353183,8924
Southern Idaho,Other,1,1,142559,College Of Southern Idaho,42.58283392,-114.4731515,6906
Staten Island,NCAA DII,1,1,190558,College Of Staten Island Cuny,40.60396179,-74.14865466,13247
Canyons,Other,0,1,111461,College Of The Canyons,34.40310168,-118.5695683,20850
College of the Ozarks,Other,1,1,178697,College Of The Ozarks,36.61665167,-93.2395184,1565
Redwoods,Other,1,1,121707,College Of The Redwoods,40.69672986,-124.1950636,4572
Sequoias,Other,1,1,123217,College Of The Sequoias,36.3229463,-119.3148206,12557
William and Mary,NCAA DI,1,1,231624,College Of William And Mary,37.27327494,-76.71965769,8817
Colo. Christian,NCAA DII,1,1,126669,Colorado Christian University,39.71381075,-105.0952941,7625
Colorado College,NCAA DIII,1,1,126678,Colorado College,38.84882507,-104.8226297,2144
Colorado Mesa,NCAA DII,1,1,127556,Colorado Mesa University,39.07785559,-108.5535548,9492
Colorado Mines,NCAA DII,1,1,126775,Colorado School Of Mines,39.74910328,-105.2229358,6325
Colorado St.,NCAA DI,1,1,126818,Colorado State University-Fort Collins,39.74475777,-104.988744,33478
CSU-Pueblo,NCAA DII,1,1,128106,Colorado State University-Pueblo,38.30919619,-104.5798336,6736
Columbia (S.C.),Other,0,1,217934,Columbia College,34.04527541,-81.03118214,1276
Columbia (Mo.),Other,1,1,177065,Columbia College,38.95740045,-92.32639051,12080
Columbia Int'l,Other,1,1,217925,Columbia International University,34.07610394,-81.07397505,1048
Columbia,NCAA DI,1,1,190150,Columbia University In The City Of New York,40.80831169,-73.9619123,31077
Columbus St.,NCAA DII,1,1,139366,Columbus State University,32.50159585,-84.94078327,8076
CCBC Essex,Other,1,0,434672,Community College Of Baltimore County,39.35262857,-76.48209673,18830
Concord,NCAA DII,1,1,237330,Concord University,37.42520105,-81.00568225,2040
Concordia-Moorhead,NCAA DIII,1,1,173300,Concordia College At Moorhead,46.86546922,-96.77067439,2129
Concordia (Tex.),NCAA DIII,1,1,224004,Concordia University Texas,30.42093006,-97.83620117,2568
Concordia (Mich.),Other,1,1,169363,Concordia University-Ann Arbor,42.2741524,-83.68249203,1197
Concordia Univ. Chicago,NCAA DIII,1,1,144351,Concordia University-Chicago,41.89858922,-87.81002718,6005
Concordia (Cal.),NCAA DII,1,1,112075,Concordia University-Irvine,33.65409537,-117.8106281,4162
Concordia (Neb.),Other,1,1,180984,Concordia University-Nebraska,40.91488973,-97.08908483,2424
Concordia-St. Paul,NCAA DII,1,1,173328,Concordia University-Saint Paul,44.94979176,-93.15487123,5054
Concordia (Wis.),NCAA DIII,1,1,238616,Concordia University-Wisconsin,43.25420048,-87.91658552,6374
Connecticut College,NCAA DIII,1,1,128902,Connecticut College,41.37985116,-72.10734163,1844
Converse,NCAA DII,0,1,217961,Converse College,34.95557535,-81.91790299,1380
Coppin State,NCAA DI,1,1,162283,Coppin State University,39.31106632,-76.65856654,2738
Corban,Other,1,1,210331,Corban University,44.88412844,-122.9584148,1183
Cornell College,NCAA DIII,1,1,153162,Cornell College,41.92602206,-91.42545817,1028
Cornell,NCAA DI,1,1,190415,Cornell University,42.44869514,-76.47655068,23600
Cornerstone,Other,1,1,170037,Cornerstone University,42.97995434,-85.59532097,2131
SUNY Corning CC,Other,1,0,190442,Corning Community College,42.11727662,-77.0737038,3424
Cottey,Other,0,1,177117,Cottey College,37.83703399,-94.37095473,271
Covenant,NCAA DIII,1,1,139393,Covenant College,34.96331571,-85.37491864,1046
Cowley College,Other,1,1,154952,Cowley County Community College,37.0616667,-97.04200387,2664
Creighton,NCAA DI,1,1,181002,Creighton University,41.26536548,-95.94776961,8910
Crown,NCAA DIII,1,1,174862,Crown College,44.8853454,-93.74302418,1510
Cuesta,Other,1,1,113193,Cuesta College,35.32983016,-120.74159,11024
Culver-Stockton,Other,1,1,177144,Culver-Stockton College,40.13002518,-91.52707245,1068
Cumberland (Tenn.),Other,1,1,219949,Cumberland University,36.20411784,-86.29994841,2405
Baruch,NCAA DIII,1,1,190512,Cuny Bernard M Baruch College,40.74027179,-73.98339112,18029
Brooklyn,NCAA DIII,1,1,190549,Cuny Brooklyn College,40.63186988,-73.95307528,18161
CCNY,NCAA DIII,1,1,190567,Cuny City College,40.81982493,-73.95053648,16043
Hunter,NCAA DIII,1,1,190594,Cuny Hunter College,40.76869813,-73.96476887,23202
John Jay,NCAA DIII,1,0,190600,Cuny John Jay College Of Criminal Justice,40.77029822,-73.9883888,15394
Lehman,NCAA DIII,1,1,190637,Cuny Lehman College,40.87397576,-73.89460489,14787
Queens (N.Y.),NCAA DII,1,1,190664,Cuny Queens College,40.73775144,-73.81541313,19746
Queensborough CC,Other,1,0,190673,Cuny Queensborough Community College,40.75485278,-73.75455334,15411
York (N.Y.),NCAA DIII,1,1,190691,Cuny York College,40.7026758,-73.79462929,8693
Cuyamaca,Other,1,0,113218,Cuyamaca College,32.7429733,-116.9406935,8824
Daemen,NCAA DII,1,1,190725,Daemen College,42.96498664,-78.78900102,2574
Dakota State,Other,1,1,219082,Dakota State University,44.01268633,-97.11067276,3382
Dakota Wesleyan,Other,1,1,219091,Dakota Wesleyan University,43.69596546,-98.03061513,1024
Dallas Baptist,NCAA DII,1,1,224226,Dallas Baptist University,32.71007333,-96.9470349,4766
Dalton State,Other,0,1,139463,Dalton State College,34.77500869,-85.00285696,5118
Dartmouth,NCAA DI,1,1,182670,Dartmouth College,43.70557129,-72.28882751,6572
Davenport,NCAA DII,1,1,169479,Davenport University,42.84972321,-85.52969805,6746
Davidson,NCAA DI,1,1,198376,Davidson County Community College,35.86550577,-80.18182345,3654
Davis & Elkins,NCAA DII,1,1,237358,Davis & Elkins College,38.9304453,-79.84587692,793
Dawson CC,Other,1,0,180151,Dawson Community College,47.0853604,-104.7254991,413
Daytona State College,Other,1,1,133386,Daytona State College,29.20225922,-81.05128522,13737
De Anza,Other,1,1,113333,De Anza College,37.31916748,-122.0453917,19482
Dean (Mass.),NCAA DIII,1,1,165574,Dean College,42.08523495,-71.39901773,1320
Defiance,NCAA DIII,1,1,202514,Defiance College,41.29711049,-84.3598833,545
Delaware State,NCAA DI,1,1,130934,Delaware State University,39.18718033,-75.54055938,4586
Delaware Tech CC,Other,1,0,130907,Delaware Technical Community College-Terry,39.19837087,-75.56008992,13895
Delaware Valley,NCAA DIII,1,1,211981,Delaware Valley University,40.2979122,-75.15828017,2428
Delta St.,NCAA DII,0,1,175616,Delta State University,33.74388932,-90.73439796,3715
Denison,NCAA DIII,1,1,202523,Denison University,40.07262577,-82.52061591,2394
DePaul,NCAA DI,1,1,144740,Depaul University,41.92336898,-87.65408791,22437
DePauw,NCAA DIII,1,1,150400,Depauw University,39.63949939,-86.86357638,2156
Des Moines Area,Other,0,1,153214,Des Moines Area Community College,41.70736215,-93.61163107,23474
DeSales,NCAA DIII,1,1,210739,Desales University,40.54013227,-75.37659685,3438
Diablo Valley,Other,1,0,113634,Diablo Valley College,37.96804731,-122.0698133,20271
Dickinson,NCAA DIII,1,1,212009,Dickinson College,40.20278083,-77.19786378,2399
Dickinson St.,Other,1,1,200059,Dickinson State University,46.88265221,-102.8005511,1392
Dillard,Other,1,1,158802,Dillard University,29.99654605,-90.06464438,1309
Dine College (AZ),Other,1,0,105297,Dine College,36.29170635,-109.2166239,1519
Dixie State,Other,1,1,230171,Dixie State University,37.10387538,-113.5659311,9950
Doane,Other,1,1,181020,Doane University-Arts & Sciences,40.62291715,-96.95096195,1008
Dodge City CC,Other,1,1,154998,Dodge City Community College,37.77785446,-100.0373218,1548
Dominican (N.Y.),NCAA DII,1,1,190761,Dominican College Of Blauvelt,41.05411829,-73.95237958,1956
Dominican (Ill.),NCAA DIII,1,1,148496,Dominican University,41.90284232,-87.82182988,2990
Dominican (Cal.),NCAA DII,1,1,113698,Dominican University Of California,37.98007916,-122.5113796,1779
Dordt,Other,1,1,153250,Dordt College,43.08366631,-96.16538289,1564
Drake,NCAA DI,1,1,153269,Drake University,41.60357977,-93.65391564,4869
Drew,NCAA DIII,1,1,184348,Drew University,40.76066079,-74.42791266,2263
Drury,NCAA DII,1,1,177214,Drury University,37.21965939,-93.28622621,1730
Duke,NCAA DI,1,1,198419,Duke University,36.00230912,-78.93864542,16606
Duquesne,NCAA DI,1,1,212106,Duquesne University,40.43753859,-79.99302194,9274
D'Youville,NCAA DIII,1,1,190716,D'Youville College,42.90259441,-78.8907859,3045
Earlham,NCAA DIII,1,1,150455,Earlham College,39.82226662,-84.91147282,1104
East Carolina,NCAA DI,1,1,198464,East Carolina University,35.60638475,-77.36623184,28718
East Central,NCAA DII,1,1,207041,East Central University,34.7739307,-96.66451779,3576
East Stroudsburg,NCAA DII,1,1,212115,East Stroudsburg University Of Pennsylvania,40.99701192,-75.1737816,6412
East Tenn. St.,NCAA DI,1,1,220075,East Tennessee State University,36.30162499,-82.36693095,14317
East Texas Baptist,NCAA DIII,1,1,224527,East Texas Baptist University,32.55682866,-94.37642801,1613
Eastern Conn. St.,NCAA DIII,1,1,129215,Eastern Connecticut State University,41.72169201,-72.21879449,5208
Eastern Illinois,NCAA DI,1,1,144892,Eastern Illinois University,39.48376833,-88.17481364,7526
Eastern Kentucky,NCAA DI,1,1,156620,Eastern Kentucky University,37.74043891,-84.3013933,15815
Eastern Mennonite,NCAA DIII,1,1,232043,Eastern Mennonite University,38.47006962,-78.87800039,1444
Eastern Michigan,NCAA DI,1,1,169798,Eastern Michigan University,42.25029866,-83.62520145,19123
Eastern Nazarene,NCAA DIII,0,1,165644,Eastern Nazarene College,42.27122231,-71.0111161,848
Eastern New Mexico,NCAA DII,1,1,187648,Eastern New Mexico University-Main Campus,34.17824265,-103.3473165,6005
Eastern Oregon,Other,1,1,208646,Eastern Oregon University,45.32040345,-118.093881,2978
Eastern,NCAA DIII,0,1,212133,Eastern University,40.05206771,-75.37303526,3256
Eastern Washington,NCAA DI,1,1,235097,Eastern Washington University,47.49127306,-117.5893778,12633
Edgewood,NCAA DIII,1,1,238661,Edgewood College,43.05872851,-89.42211194,2190
Edinboro,NCAA DII,1,1,212160,Edinboro University Of Pennsylvania,41.87001115,-80.12633847,4834
Edward Waters,Other,1,1,133526,Edward Waters College,30.34476937,-81.68483519,2906
El Camino,Other,1,1,113980,El Camino Community College District,33.8861034,-118.327682,24820
El Paso CC,Other,1,1,224642,El Paso Community College,31.77163264,-106.3709137,28819
Elizabeth City St.,NCAA DII,1,1,198507,Elizabeth City State University,36.2777026,-76.2111216,1677
Elizabethtown,NCAA DIII,1,1,212197,Elizabethtown College,40.15003074,-76.59151074,1687
Elmhurst,NCAA DIII,1,1,144962,Elmhurst College,41.89922285,-87.94606136,3426
Elon,NCAA DI,1,1,198516,Elon University,36.10417434,-79.50558604,6991
Embry-Riddle,NCAA DII,1,1,133553,Embry-Riddle Aeronautical University-Daytona Beach,29.18921946,-81.04948096,6613
Embry-Riddle Arizona,Other,1,1,104586,Embry-Riddle Aeronautical University-Prescott,34.61610995,-112.4499143,2776
Emerson,NCAA DIII,1,1,165662,Emerson College,42.35213858,-71.0655207,4573
Emmanuel (Mass.),NCAA DIII,1,1,165671,Emmanuel College,42.34106429,-71.10263001,2209
Emmanuel (Ga.),NCAA DII,1,1,139630,Emmanuel College,34.28259293,-83.14685415,920
Emory & Henry,NCAA DIII,1,1,232025,Emory & Henry College,36.77250781,-81.83176819,1246
Emory,NCAA DIII,1,1,139658,Emory University,33.79327692,-84.32578915,14458
Oxford College,Other,1,1,487092,Emory University-Oxford College,33.6185416,-83.86838826,993
Emporia St.,NCAA DII,1,1,155025,Emporia State University,38.41316554,-96.17856565,5796
Endicott,NCAA DIII,1,1,165699,Endicott College,42.55414379,-70.84072214,4794
Erskine,NCAA DII,1,1,217998,Erskine College,34.33058488,-82.39051369,693
Essex CC,Other,1,1,184481,Essex County College,40.73844312,-74.17823149,7514
Eureka,NCAA DIII,1,1,144971,Eureka College,40.71309197,-89.26898691,567
Evangel,Other,1,1,177339,Evangel University,37.22100449,-93.26261091,2098
Everett CC,Other,1,1,235149,Everett Community College,48.00663458,-122.2047853,7957
Fairfield,NCAA DI,1,1,129242,Fairfield University,41.16072965,-73.25779842,5273
FDU-Florham,NCAA DIII,1,1,184694,Fairleigh Dickinson University-Florham Campus,40.77731748,-74.43538306,3483
Fairleigh Dickinson,NCAA DI,1,1,184603,Fairleigh Dickinson University-Metropolitan Campus,40.89613471,-74.03001345,7871
Fairmont St,NCAA DII,1,1,237367,Fairmont State University,39.48594575,-80.16206426,3947
Farmingdale St.,NCAA DIII,1,1,196042,Farmingdale State College,40.75403168,-73.4263786,9970
Fayetteville St.,NCAA DII,1,1,198543,Fayetteville State University,35.0724549,-78.89466657,6318
Felician,NCAA DII,1,1,184612,Felician University,40.8672643,-74.09642879,2004
Ferris State,NCAA DII,1,1,169910,Ferris State University,43.68760918,-85.48170125,13250
Ferrum,NCAA DIII,1,1,232089,Ferrum College,36.92661167,-80.02089753,1124
Finger Lakes CC,Other,1,0,191199,Finger Lakes Community College,42.86753068,-77.24179175,5944
Fitchburg St.,NCAA DIII,1,1,165820,Fitchburg State University,42.58932201,-71.78934566,7199
Flagler,NCAA DII,1,1,133711,Flagler College-St Augustine,29.89275251,-81.31492368,2608
Florida A&M,NCAA DI,0,1,133650,Florida Agricultural And Mechanical University,30.42754394,-84.28843225,10021
Florida Atlantic,NCAA DI,1,1,133669,Florida Atlantic University,26.37245761,-80.10299783,29772
Florida College,Other,1,1,133809,Florida College,28.03495419,-82.38347035,508
Florida Gateway College,Other,0,1,135160,Florida Gateway College,30.1743013,-82.56967922,3385
Florida Gulf Coast,NCAA DI,1,1,433660,Florida Gulf Coast University,26.46431227,-81.77423744,15031
FIU,NCAA DI,1,1,133951,Florida International University,25.75713875,-80.37762585,57942
Florida National,Other,1,1,408844,Florida National University-Main Campus,25.86181734,-80.3218156,4044
Florida Southern,NCAA DII,1,1,134079,Florida Southern College,28.03163427,-81.94589784,3154
FSCJ (Jacksonville),Other,1,1,133702,Florida State College At Jacksonville,30.33496802,-81.65994196,23413
Florida State,NCAA DI,1,1,134097,Florida State University,30.44320927,-84.30151262,41005
Florida Tech,NCAA DII,1,0,134112,Florida Technical College,28.5731987,-81.19656142,3950
Fontbonne,NCAA DIII,1,1,177418,Fontbonne University,38.64271619,-90.31573923,1290
Fordham,NCAA DI,1,1,191241,Fordham University,40.86137177,-73.88988187,16515
Fort Hays St.,NCAA DII,1,1,155061,Fort Hays State University,38.87248384,-99.34052111,15523
Fort Lewis,NCAA DII,1,1,127185,Fort Lewis College,37.27542048,-107.8670029,3319
Fort Scott CC,Other,1,1,155098,Fort Scott Community College,37.81621267,-94.71532449,1868
Fort Valley State,NCAA DII,1,1,139719,Fort Valley State University,32.53816017,-83.89552627,2776
Framingham St.,NCAA DIII,1,1,165866,Framingham State University,42.297271,-71.4372131,5565
Francis Marion,NCAA DII,1,1,218061,Francis Marion University,34.19231273,-79.6543865,3940
Franciscan (Ohio),NCAA DIII,1,1,205957,Franciscan University Of Steubenville,40.37607274,-80.62312117,3028
Franklin & Marshall,NCAA DIII,1,1,212577,Franklin And Marshall College,40.04808633,-76.3190706,2309
Franklin Pierce,NCAA DII,1,1,182795,Franklin Pierce University,42.78390084,-72.0569447,2178
Franklin,NCAA DIII,1,1,202806,Franklin University,39.95810496,-82.99131128,4970
Freed-Hardeman,Other,1,1,220215,Freed-Hardeman University,35.44007937,-88.63946775,2037
Fresno,Other,1,0,114789,Fresno City College,36.76813332,-119.796107,24366
Fresno Pacific,NCAA DII,1,1,114813,Fresno Pacific University,36.72597161,-119.7326146,4292
Friends,Other,1,1,155089,Friends University,37.67846861,-97.36703749,1926
Frostburg State,NCAA DII,1,1,162584,Frostburg State University,39.65148343,-78.93389797,5295
Fullerton,Other,1,0,114859,Fullerton College,33.8768018,-117.9168544,22644
Furman,NCAA DI,1,1,218070,Furman University,34.92472944,-82.43928478,2947
Gallaudet,NCAA DIII,1,1,131450,Gallaudet University,38.9073445,-76.99370985,1557
Gannon,NCAA DII,1,1,212601,Gannon University,42.1282287,-80.08665541,4291
Garden City CC,Other,1,1,155104,Garden City Community College,37.97016149,-100.8481153,1917
Gardner-Webb,NCAA DI,1,1,198561,Gardner-Webb University,35.24735365,-81.66815966,3598
Geneva,NCAA DIII,1,1,212656,Geneva College,40.77215572,-80.32103199,1543
Wallace State,Other,1,1,101295,George C Wallace State Community College-Hanceville,34.07240398,-86.78194661,5057
George Fox,NCAA DIII,1,1,208822,George Fox University,45.30304011,-122.9674345,3941
George Mason,NCAA DI,1,1,232186,George Mason University,38.83086822,-77.30790435,37316
George Washington,NCAA DI,1,1,131469,George Washington University,38.89911013,-77.04626556,28172
Georgetown (Ky.),Other,1,1,156745,Georgetown College,38.20745265,-84.55472367,1608
Georgetown,NCAA DI,1,1,131496,Georgetown University,38.90876062,-77.07345397,19204
Georgia College,NCAA DII,1,1,139861,Georgia College & State University,33.08280067,-83.23198024,6989
Georgia Tech,NCAA DI,1,1,139755,Georgia Institute Of Technology-Main Campus,33.7737367,-84.39604141,32723
Georgia Military College,Other,1,1,485111,Georgia Military College,33.08005348,-83.22122206,8812
Georgia Southern,NCAA DI,0,1,139931,Georgia Southern University,32.4198997,-81.77992388,26408
Georgia Southwestern,NCAA DII,1,1,139764,Georgia Southwestern State University,32.05823833,-84.21777563,2907
Georgia State,NCAA DI,0,1,139940,Georgia State University,33.75270301,-84.38665104,34316
Georgian Court,NCAA DII,1,1,184773,Georgian Court University,40.09970667,-74.22742759,2458
Gettysburg,NCAA DIII,1,1,212674,Gettysburg College,39.83586351,-77.23457707,2441
Glendale,Other,1,1,115001,Glendale Community College,34.1664017,-118.2282876,13892
Glendale CC,Other,0,1,104708,Glendale Community College,33.57112113,-112.1893775,17942
Glenville St.,NCAA DII,1,1,237385,Glenville State College,38.93547271,-80.83341792,1586
Golden West,Other,0,1,115126,Golden West College,33.73381567,-118.0030844,11621
Goldey-Beacom,NCAA DII,1,1,130989,Goldey-Beacom College,39.74101515,-75.68882545,1493
Gonzaga,NCAA DI,1,1,235316,Gonzaga University,47.66819261,-117.4030126,7563
Gordon,NCAA DIII,1,1,165936,Gordon College,42.58817571,-70.81913334,1955
Goshen,Other,1,1,150668,Goshen College,41.56195584,-85.82486043,927
Goucher,NCAA DIII,0,1,162654,Goucher College,39.41021685,-76.59480171,2267
Governors State,Other,1,1,145336,Governors State University,41.44912,-87.71645215,4857
Grace Christian,Other,0,1,170000,Grace Christian University,42.91955987,-85.69207663,1016
Grace,Other,1,1,150677,Grace College And Theological Seminary,41.22673981,-85.81266983,2029
Graceland,Other,1,1,153366,Graceland University-Lamoni,40.61592767,-93.92491049,1993
Grambling,NCAA DI,1,1,159009,Grambling State University,32.52266994,-92.71732633,5205
Grand Canyon,NCAA DI,1,1,104717,Grand Canyon University,33.51323072,-112.1299218,90253
Grand Rapids CC,Other,1,1,170055,Grand Rapids Community College,42.96642062,-85.66653449,13788
Grand Valley St.,NCAA DII,1,1,170082,Grand Valley State University,42.96524222,-85.88756606,24677
Grand View,Other,1,1,153375,Grand View University,41.6202127,-93.60282414,1886
Green River College,Other,1,1,235343,Green River College,47.31315789,-122.1782283,8471
Greenville,NCAA DIII,1,1,145372,Greenville University,38.89536041,-89.40898727,1132
Grinnell,NCAA DIII,1,1,153384,Grinnell College,41.74635922,-92.72139362,1716
Grove City,NCAA DIII,1,1,212805,Grove City College,41.15593728,-80.07790323,2338
Guilford,NCAA DIII,1,0,198622,Guilford Technical Community College,35.99813018,-79.9191222,10520
Gustavus Adolphus,NCAA DIII,1,1,173647,Gustavus Adolphus College,44.32497958,-93.9719065,2241
Gwynedd-Mercy,NCAA DIII,1,1,212832,Gwynedd Mercy University,40.19756053,-75.23803809,3056
Hagerstown CC,Other,1,0,162690,Hagerstown Community College,39.63098043,-77.66736543,4156
Hamilton,NCAA DIII,1,1,191515,Hamilton College,43.05427895,-75.40797683,2005
Hamline,NCAA DIII,1,1,173665,Hamline University,44.96567293,-93.16393636,3526
Hampden-Sydney,NCAA DIII,1,0,232256,Hampden-Sydney College,37.24252469,-78.4613833,1072
Hampton,NCAA DI,1,1,232265,Hampton University,37.02147306,-76.33197198,4321
Hannibal-LaGrange,Other,1,1,177542,Hannibal-Lagrange University,39.73078238,-91.39140991,890
Hanover,NCAA DIII,1,1,150756,Hanover College,38.71252821,-85.46111548,1104
Harding,NCAA DII,1,1,107044,Harding University,35.24737518,-91.72599664,5121
Hardin-Simmons,NCAA DIII,1,0,225247,Hardin-Simmons University,32.4767673,-99.73384388,2344
Hartnell,Other,1,1,115393,Hartnell College,36.67395893,-121.6656919,12521
Hartwick,NCAA DIII,1,1,191533,Hartwick College,42.45922363,-75.07172124,1176
Harvard,NCAA DI,1,1,166027,Harvard University,42.3741729,-71.11822913,31566
Haskell Indian,Other,1,1,155140,Haskell Indian Nations University,38.93779515,-95.23254008,733
Hastings,Other,1,1,181127,Hastings College,40.59045882,-98.37363172,1080
Haverford,NCAA DIII,1,1,212911,Haverford College,40.00733479,-75.3051055,1310
Hawaii Pacific,NCAA DII,1,1,141644,Hawaii Pacific University,21.31036223,-157.8597471,4086
Hawkeye CC,Other,1,1,153445,Hawkeye Community College,42.43000595,-92.3305836,5263
Heidelberg,NCAA DIII,1,1,203085,Heidelberg University,41.11436915,-83.16641051,1219
Henderson St.,NCAA DII,0,1,107071,Henderson State University,34.12776377,-93.06030816,3961
Hendrix,NCAA DIII,1,1,107080,Hendrix College,35.09968691,-92.4420704,1208
High Point,NCAA DI,1,1,198695,High Point University,35.97303981,-79.99446195,5137
Highland CC,Other,1,1,145521,Highland Community College,42.28334209,-89.67362484,1596
Hilbert,NCAA DIII,1,1,191621,Hilbert College,42.7546738,-78.82023842,764
Hillsdale,NCAA DII,1,1,170286,Hillsdale College,41.93172993,-84.63414747,1521
Hobart,NCAA DIII,1,0,191630,Hobart William Smith Colleges,42.85896764,-76.98603312,2241
William Smith,NCAA DIII,0,1,191630,Hobart William Smith Colleges,42.85896764,-76.98603312,2241
Hofstra,NCAA DI,1,1,191649,Hofstra University,40.71595031,-73.60079658,10871
Hollins,NCAA DIII,0,1,232308,Hollins University,37.35459492,-79.94217248,805
Holy Family,NCAA DII,1,1,212984,Holy Family University,40.06061349,-74.98645517,3089
Holy Names,NCAA DII,1,1,115728,Holy Names University,37.80316275,-122.1872794,960
Hood,NCAA DIII,1,1,162760,Hood College,39.42191269,-77.41930292,2005
Hope,NCAA DIII,1,1,170301,Hope College,42.78800583,-86.1053461,3149
Hope Int'l,Other,1,1,120537,Hope International University,33.87746414,-117.8851004,1253
Houghton,Other,1,1,191676,Houghton College,42.42679591,-78.15684966,1001
Houston Baptist,NCAA DI,1,1,225399,Houston Baptist University,29.69384022,-95.51599305,3432
Howard CC,Other,1,0,162779,Howard Community College,39.21159002,-76.87838835,9211
Howard,NCAA DI,1,1,131520,Howard University,38.92069914,-77.01943561,9139
Hudson Valley CC,Other,1,1,191719,Hudson Valley Community College,42.69724129,-73.68211441,10896
Humboldt State,NCAA DII,1,1,115755,Humboldt State University,40.87549878,-124.0772516,7972
Huntingdon,NCAA DIII,1,1,101435,Huntingdon College,32.35091221,-86.28536244,1081
Huntington,Other,1,1,150941,Huntington University,40.89906243,-85.49965739,1302
Husson,NCAA DIII,1,1,487524,Husson University,44.82732465,-68.79209581,3761
Hutchinson CC,Other,1,1,155195,Hutchinson Community College,38.06808796,-97.91968654,5574
Idaho State,NCAA DI,1,1,142276,Idaho State University,42.86410352,-112.4291043,12363
Illinois College,NCAA DIII,1,0,145691,Illinois College,39.73081751,-90.24659966,983
Illinois Tech,NCAA DIII,1,0,145725,Illinois Institute Of Technology,41.83381018,-87.62831478,6753
Illinois State,NCAA DI,1,1,145813,Illinois State University,40.5097601,-88.9923069,20635
Illinois Wesleyan,NCAA DIII,1,1,145646,Illinois Wesleyan University,40.49138731,-88.99132775,1693
Immaculata,NCAA DIII,1,1,213011,Immaculata University,40.0279291,-75.57066273,2448
Indian Hills CC,Other,1,1,153472,Indian Hills Community College,41.04511942,-92.39470141,3918
Indiana Tech,Other,1,1,151290,Indiana Institute Of Technology,41.07835099,-85.1179207,2218
Indiana State,NCAA DI,1,1,151324,Indiana State University,39.46906785,-87.4078548,13044
Indiana (Pa.),NCAA DII,1,1,213020,Indiana University Of Pennsylvania-Main Campus,40.61556738,-79.15989097,11483
Indiana,NCAA DI,1,1,151351,Indiana University-Bloomington,39.1677525,-86.52355518,43503
Indiana East,Other,1,1,151388,Indiana University-East,39.86870139,-84.88187526,3722
Indiana Kokomo,Other,1,1,151333,Indiana University-Kokomo,40.46005249,-86.13201117,3123
IUPUI,NCAA DI,1,1,151111,Indiana University-Purdue University-Indianapolis,39.77297777,-86.17225034,29579
Indiana South Bend,Other,1,0,151342,Indiana University-South Bend,41.66449355,-86.21993132,5214
Indiana Wesleyan,Other,1,1,151801,Indiana Wesleyan University-Marion,40.51844734,-85.66200216,3188
Iona,NCAA DI,1,1,191931,Iona College,40.92667855,-73.78649944,3926
Iowa Central CC,Other,1,1,153524,Iowa Central Community College,42.49105343,-94.20341875,5390
Iowa State,NCAA DI,1,1,153603,Iowa State University,42.02531011,-93.65021588,34992
Iowa Wesleyan,NCAA DIII,1,1,153621,Iowa Wesleyan University,40.97367551,-91.55258456,616
Iowa Western CC,Other,1,1,153630,Iowa Western Community College,41.27332024,-95.80097106,5962
Ithaca,NCAA DIII,1,1,191968,Ithaca College,42.42261914,-76.49502908,6517
Jackson CC,Other,1,0,170444,Jackson College,42.16486452,-84.40393454,5083
Jackson State,NCAA DI,1,1,175856,Jackson State University,32.29679871,-90.2066291,7250
Jacksonville College,Other,1,1,225876,Jacksonville College-Main Campus,31.96612111,-95.28121639,511
Jacksonville St.,NCAA DI,1,1,101480,Jacksonville State University,33.8221603,-85.76640788,8479
Jacksonville,NCAA DI,1,1,134945,Jacksonville University,30.35086828,-81.60645875,4213
Rhodes,NCAA DIII,1,1,203678,James A Rhodes State College,40.73830601,-84.02636589,4002
James Madison,NCAA DI,0,1,232423,James Madison University,38.43535657,-78.87167731,21751
Jamestown,Other,1,1,191986,Jamestown Community College,42.11564211,-79.21882577,4476
Jarvis Christian,Other,1,0,225885,Jarvis Christian College,32.5882182,-95.17768627,964
John Brown,Other,1,1,107141,John Brown University,36.19159961,-94.55872144,2516
John Carroll,NCAA DIII,1,1,203368,John Carroll University,41.49001079,-81.53298428,3555
Johns Hopkins,NCAA DIII,1,1,162928,Johns Hopkins University,39.32982938,-76.62073451,26152
Johnson C. Smith,NCAA DII,1,1,198756,Johnson C Smith University,35.24302539,-80.85720272,1565
Judson,Other,1,1,146339,Judson University,42.05908309,-88.28940295,1256
Juniata,NCAA DIII,1,1,213251,Juniata College,40.4995203,-78.01511164,1433
Kalamazoo,NCAA DIII,1,1,170541,Kalamazoo Valley Community College,42.22596769,-85.68218783,8069
Kansas Christian,Other,1,0,155308,Kansas Christian College,38.99558936,-94.66640515,151
Kansas State,NCAA DI,1,1,155399,Kansas State University,39.18861886,-96.58103113,22221
Kansas Wesleyan,Other,1,1,155414,Kansas Wesleyan University,38.8134132,-97.60945513,741
Kaskaskia College,Other,1,0,146366,Kaskaskia College,38.56227175,-89.19170816,3164
Keene State,NCAA DIII,1,1,183062,Keene State College,42.92600884,-72.28146773,3543
Keiser,Other,1,1,135081,Keiser University-Ft Lauderdale,26.18583988,-80.16393728,19510
Kennesaw State,NCAA DI,1,1,486840,Kennesaw State University,34.03814433,-84.58313062,35420
Kent State,NCAA DI,1,1,203517,Kent State University At Kent,41.15161228,-81.33709838,28122
Kentucky Christian,Other,1,1,157100,Kentucky Christian University,38.33895684,-82.94684312,681
Kentucky Wesleyan,NCAA DII,0,1,157076,Kentucky Wesleyan College,37.74458906,-87.12189846,830
Kenyon,NCAA DIII,1,1,203535,Kenyon College,40.37682059,-82.39617019,1730
Keuka,NCAA DIII,0,1,192192,Keuka College,42.61524899,-77.09061189,1926
Keystone,NCAA DIII,1,0,213303,Keystone College,41.55892582,-75.77749111,1424
King,NCAA DII,1,1,220516,King University,36.58599579,-82.15651412,1948
King's (Pa.),NCAA DIII,1,1,213321,King'S College,41.24886765,-75.87806787,2569
Kirtland CC,Other,1,0,170587,Kirtland Community College,44.49076839,-84.4134208,1489
Knox,NCAA DIII,1,0,146427,Knox College,40.94181854,-90.3703315,1333
Kutztown,NCAA DII,1,1,213349,Kutztown University Of Pennsylvania,40.51332772,-75.78537364,8290
La Salle,NCAA DI,1,1,213367,La Salle University,40.03864749,-75.1518983,5191
Lafayette,NCAA DI,1,1,213385,Lafayette College,40.69953138,-75.21135124,2642
LaGrange,NCAA DIII,1,1,140234,Lagrange College,33.03919483,-85.04358782,1029
Lake Erie,NCAA DII,1,1,203580,Lake Erie College,41.7178305,-81.25180087,1160
Lake Forest,NCAA DIII,1,1,146481,Lake Forest College,42.2497594,-87.82895529,1512
Lake Superior State,NCAA DII,1,1,170639,Lake Superior State University,46.49263352,-84.36459774,1991
Lakeland,NCAA DIII,1,1,238980,Lakeland University,43.84124292,-87.88436614,2497
Lake Sumter State College,Other,1,1,135188,Lake-Sumter State College,28.8302215,-81.79773354,4812
Lamar,NCAA DI,1,1,226091,Lamar University,30.04428468,-94.07336321,14783
Lancaster Bible,NCAA DIII,1,1,213400,Lancaster Bible College,40.07365178,-76.28813408,2122
Lander,NCAA DII,1,1,218229,Lander University,34.20114684,-82.16635963,3044
Lane,NCAA DII,1,1,220598,Lane College,35.62810862,-88.80675695,1232
Lane CC,Other,1,1,209038,Lane Community College,44.01003208,-123.0335991,9029
Lansing CC,Other,1,1,170657,Lansing Community College,42.73890302,-84.55166505,11771
Lasell,NCAA DIII,0,1,166391,Lasell College,42.34283023,-71.24428447,2060
Lawrence Tech,Other,1,1,170675,Lawrence Technological University,42.47406221,-83.25006604,2915
Lawrence,NCAA DIII,1,1,239017,Lawrence University,44.26135906,-88.39782256,1463
Le Moyne,NCAA DII,1,1,192323,Le Moyne College,43.04873569,-76.08746531,3356
LeMoyne-Owen,NCAA DII,1,1,220604,Le Moyne-Owen College,35.11859829,-90.03410363,885
Lebanon Valley,NCAA DIII,1,1,213507,Lebanon Valley College,40.33175692,-76.51380005,1922
Lee (Tenn.),NCAA DII,1,1,220613,Lee University,35.16613524,-84.86997964,5386
Lees-McRae,NCAA DII,1,1,198808,Lees-Mcrae College,36.16249726,-81.87340571,966
Lehigh,NCAA DI,1,1,213543,Lehigh University,40.60664591,-75.37713849,6849
Lenoir-Rhyne,NCAA DII,1,1,198835,Lenoir-Rhyne University,35.73996552,-81.32760212,2700
Lesley,NCAA DIII,1,1,166452,Lesley University,42.38047038,-71.11672979,4838
LeTourneau,NCAA DIII,1,1,226231,Letourneau University,32.4677014,-94.72728857,3175
Lewis & Clark,NCAA DIII,1,1,209056,Lewis & Clark College,45.45154062,-122.6703687,3396
Lewis,NCAA DII,1,1,146612,Lewis University,41.60542956,-88.07907484,6440
Lewis-Clark,Other,1,1,142328,Lewis-Clark State College,46.41068329,-117.0268998,3684
Liberty,NCAA DI,1,1,232557,Liberty University,37.35034387,-79.17964747,79152
Life Pacific,Other,1,1,117104,Life Pacific College,34.0986849,-117.8293641,619
Life,Other,0,1,140252,Life University,33.93211446,-84.51417379,2746
Limestone,NCAA DII,1,1,218238,Limestone College,35.0556333,-81.64979376,2442
Lincoln College,Other,1,1,221148,Lincoln College Of Technology-Nashville,36.19437191,-86.7439544,1692
Lincoln Memorial,NCAA DII,1,1,220631,Lincoln Memorial University,36.58006225,-83.6594226,4798
Lincoln (Mo.),NCAA DII,0,1,177940,Lincoln University,38.56478496,-92.16840464,2478
Lincoln (Pa.),NCAA DII,1,1,213598,Lincoln University,39.80774315,-75.92830344,2376
Lindenwood,NCAA DII,1,1,177968,Lindenwood University,38.78669384,-90.50167031,9468
Lindsey Wilson,Other,1,1,157216,Lindsey Wilson College,37.10255857,-85.29848578,2589
Linfield,NCAA DIII,1,1,209065,Linfield College-Mcminnville Campus,45.20129608,-123.2004305,1376
Lipscomb,NCAA DI,1,1,219976,Lipscomb University,36.10467813,-86.79925605,4620
Livingstone,NCAA DII,1,1,198862,Livingstone College,35.67028355,-80.48341571,1148
Lock Haven,NCAA DII,1,1,213613,Lock Haven University,41.14181342,-77.46224829,3418
Long Beach,Other,1,1,117645,Long Beach City College,33.83175554,-118.1358687,23845
LIU,NCAA DI,1,1,192448,Long Island University,40.8207385,-73.59364058,15196
Longwood,NCAA DI,1,1,232566,Longwood University,37.30105421,-78.39583551,4911
Lorain County CC,Other,1,1,203748,Lorain County Community College,41.41232003,-82.07294153,10644
Loras,NCAA DIII,1,1,153825,Loras College,42.50395767,-90.67901255,1489
LA Harbor,Other,1,1,117690,Los Angeles Harbor College,33.78416817,-118.2818887,8704
Pierce College,Other,0,1,117706,Los Angeles Pierce College,34.18416628,-118.5771922,17664
Louisburg College,Other,1,0,198871,Louisburg College,36.10542161,-78.29967346,594
LSU,NCAA DI,1,1,159391,Louisiana State University And Agricultural & Mechanical College,30.41274254,-91.18073312,30983
Louisiana Tech,NCAA DI,1,1,159647,Louisiana Tech University,32.52555522,-92.64963319,11909
Lourdes,Other,1,1,203757,Lourdes University,41.70872367,-83.70665264,1444
Loyola Marymount,NCAA DI,1,1,117946,Loyola Marymount University,33.9708937,-118.4157217,9838
Loyola (Ill.),NCAA DI,1,1,146719,Loyola University Chicago,41.9991308,-87.65744376,17007
Loyola (Md.),NCAA DI,1,1,163046,Loyola University Maryland,39.34608198,-76.62345401,5645
Loyola-New Orleans,Other,1,1,159656,Loyola University New Orleans,29.93614647,-90.12038071,4261
Lubbock Christian,NCAA DII,1,1,226383,Lubbock Christian University,33.57624491,-101.9347796,1805
Luther,NCAA DIII,1,1,153834,Luther College,43.31357865,-91.80401453,2005
Lycoming,NCAA DIII,1,1,213668,Lycoming College,41.24611166,-77.00046608,1142
Lynn,NCAA DII,1,1,132657,Lynn University,26.38274688,-80.12380331,3093
Lyon,Other,1,1,106342,Lyon College,35.77816522,-91.62620766,655
Macalester,NCAA DIII,1,1,173902,Macalester College,44.93662501,-93.1691478,2174
Madonna,Other,1,1,170806,Madonna University,42.38710804,-83.40749812,3044
Maine Maritime,NCAA DIII,1,1,161299,Maine Maritime Academy,44.38729016,-68.80317862,997
Malone,NCAA DII,1,1,203775,Malone University,40.82538239,-81.3778131,1667
Manchester,NCAA DIII,1,1,151777,Manchester University,41.01057408,-85.76267834,1525
Manhattan,NCAA DI,1,1,192703,Manhattan College,40.88972649,-73.90184621,4232
Mansfield,NCAA DII,1,1,213783,Mansfield University Of Pennsylvania,41.80793577,-77.07156405,1629
Maranatha Baptist,NCAA DIII,1,1,239071,Maranatha Baptist University,43.194986,-88.73701421,1035
Marian (Ind.),Other,1,1,239080,Marian University,43.77739062,-88.42060055,1819
Marietta,NCAA DIII,1,1,203845,Marietta College,39.41762457,-81.45004805,1130
Marion Military Institute,Other,1,1,101648,Marion Military Institute,32.62338258,-87.32211569,394
Marist,NCAA DI,1,1,192819,Marist College,41.72195413,-73.93437834,6624
Marquette,NCAA DI,1,1,239105,Marquette University,43.03722903,-87.93113609,11605
Mars Hill,NCAA DII,1,1,198899,Mars Hill University,35.82582257,-82.55086302,1154
Marshall,NCAA DI,1,1,237525,Marshall University,38.42259781,-82.43060321,13204
Martin Luther,NCAA DIII,1,1,173452,Martin Luther College,44.30458923,-94.47202595,972
Mary Baldwin,NCAA DIII,1,1,232672,Mary Baldwin University,38.1547737,-79.06834408,1902
Marymount California,Other,1,1,118541,Marymount California University,33.73490523,-118.3335743,761
Marymount (Va.),NCAA DIII,0,1,232706,Marymount University,38.90552842,-77.12884228,3418
Maryville (Tenn.),NCAA DIII,1,1,220710,Maryville College,35.75199175,-83.96388215,1146
Maryville (Mo.),NCAA DII,1,1,178059,Maryville University Of Saint Louis,38.64546088,-90.50512618,9139
Marywood,NCAA DIII,1,1,213826,Marywood University,41.43455491,-75.63419146,2853
Mass. Liberal Arts,NCAA DIII,1,1,167288,Massachusetts College Of Liberal Arts,42.69153388,-73.10336678,1452
MIT,NCAA DIII,1,1,166683,Massachusetts Institute Of Technology,42.36012458,-71.09209764,11574
Mass. Maritime,NCAA DIII,1,1,166692,Massachusetts Maritime Academy,41.7403899,-70.62413525,1802
McDaniel,NCAA DIII,1,1,164270,Mcdaniel College,39.58483045,-77.00162963,2780
McKendree,NCAA DII,1,1,147013,Mckendree University,38.60947041,-89.81474396,2494
McMurry,NCAA DIII,1,1,226587,Mcmurry University,32.43040478,-99.75189352,1132
McNeese State,NCAA DI,1,1,159717,Mcneese State University,30.18079272,-93.21568504,7647
McPherson,Other,1,1,155511,Mcpherson College,38.37256984,-97.64276448,819
Medaille,NCAA DIII,1,1,192925,Medaille College,42.92894698,-78.85657545,2146
Menlo College,Other,1,1,118693,Menlo College,37.45617867,-122.1920887,775
Mercer,NCAA DI,1,1,140447,Mercer University,32.82971636,-83.65105218,8740
Mercyhurst,NCAA DII,1,1,213987,Mercyhurst University,42.10398706,-80.0555411,2685
Meredith,NCAA DIII,0,1,198950,Meredith College,35.7972287,-78.68915227,1905
Merrimack,Other,1,1,166850,Merrimack College,42.66830747,-71.12423644,4643
Mesa CC,Other,1,1,105154,Mesa Community College,33.38953327,-111.8720534,20387
Messiah,NCAA DIII,1,1,213996,Messiah College,40.15867616,-76.98854197,3375
Methodist,NCAA DIII,1,1,198969,Methodist University,35.13422462,-78.87383515,2092
Metropolitan CC,Other,1,1,177995,Metropolitan Community College-Kansas City,39.06858151,-94.59047876,16351
MSU Denver,NCAA DII,1,1,127565,Metropolitan State University Of Denver,39.74224325,-105.0023548,20192
Miami (Ohio),NCAA DI,1,1,204024,Miami University-Oxford,39.50961674,-84.73182197,19934
Michigan State,NCAA DI,1,1,171100,Michigan State University,42.72480497,-84.47362071,50351
Michigan Tech,NCAA DII,1,1,171128,Michigan Technological University,47.11833223,-88.54643674,7172
MidAmerica Nazarene,Other,1,1,155520,Midamerica Nazarene University,38.87476357,-94.78210361,1875
Middle Georgia State,Other,0,1,482158,Middle Georgia State University,32.81041439,-83.73235896,7802
Mid. Tenn. State,NCAA DI,1,1,220978,Middle Tennessee State University,35.84810549,-86.3672365,21631
Middlebury,NCAA DIII,1,1,230959,Middlebury College,44.00915821,-73.17606946,2611
Midland,Other,1,1,181330,Midland University,41.43670364,-96.48802276,1873
Midway,Other,1,1,157377,Midway University,38.14451501,-84.67736063,1668
Midwestern St.,NCAA DII,0,1,226833,Midwestern State University,33.876907,-98.52118173,6102
Miles,NCAA DII,1,1,101675,Miles College,33.48120297,-86.90815541,1550
Millersville,NCAA DII,0,1,214041,Millersville University Of Pennsylvania,39.99572195,-76.35258987,7746
Milligan,Other,1,1,486901,Milligan College,36.29929634,-82.29461327,1225
Millikin,NCAA DIII,1,1,147244,Millikin University,39.8426049,-88.97400533,2094
Millsaps,NCAA DIII,1,1,175980,Millsaps College,32.32305416,-90.17804774,865
MSOE,NCAA DIII,1,1,239318,Milwaukee School Of Engineering,43.04533093,-87.90765401,2820
Mineral Area College,Other,1,0,178217,Mineral Area College,37.84561301,-90.48270945,2885
MSU-Moorhead,NCAA DII,1,1,174358,Minnesota State University Moorhead,46.86649659,-96.76338515,5860
Minnesota State,NCAA DII,1,1,173920,Minnesota State University-Mankato,44.14728276,-93.99853196,14374
Minot State,NCAA DII,1,1,200253,Minot State University,48.2469003,-101.3006201,3189
Misericordia,NCAA DIII,1,1,214069,Misericordia University,41.34526764,-75.97158713,2566
Mississippi College,NCAA DII,1,1,176053,Mississippi College,32.33460615,-90.3304194,5103
Miss State,NCAA DI,1,1,176080,Mississippi State University,33.45174344,-88.79079785,21974
Miss. Univ. for Women,NCAA DIII,1,1,176035,Mississippi University For Women,33.49450811,-88.41977769,2711
Mississippi Valley,NCAA DI,1,1,176044,Mississippi Valley State University,33.51323693,-90.34180267,2285
Missouri Baptist,Other,1,1,178244,Missouri Baptist University,38.6420658,-90.46258584,5292
Missouri Southern,NCAA DII,1,1,178341,Missouri Southern State University,37.09573845,-94.46092051,6006
Missouri State,NCAA DI,0,1,179566,Missouri State University-Springfield,37.19796339,-93.27677395,23697
Missouri S&T,NCAA DII,1,1,178411,Missouri University Of Science And Technology,37.95588189,-91.77588378,8601
Missouri Valley,Other,1,1,178369,Missouri Valley College,39.10847798,-93.19067269,1867
Missouri Western,NCAA DII,1,1,178387,Missouri Western State University,39.75753918,-94.78567848,5669
Mitchell,NCAA DIII,1,1,129774,Mitchell College,41.32825433,-72.09883926,665
Modesto,Other,1,0,118976,Modesto Junior College,37.6520093,-121.0097364,17908
Mohawk Valley CC,Other,1,1,193283,Mohawk Valley Community College,43.07734411,-75.21724674,6317
Molloy,NCAA DII,1,1,193292,Molloy College,40.68593384,-73.62631134,4929
Monmouth (Ill.),NCAA DIII,1,1,147341,Monmouth College,40.9146049,-90.63812636,914
Monmouth,NCAA DI,1,1,185572,Monmouth University,40.2800916,-74.00648496,6167
Monroe College (Bronx),Other,1,0,193308,Monroe College,40.86408673,-73.9005295,6386
Montana State,NCAA DI,1,1,180461,Montana State University,45.666802,-111.0499422,16814
MSU-Billings,NCAA DII,1,1,180179,Montana State University Billings,45.79685018,-108.5229923,4315
MSU-Northern,Other,1,1,180522,Montana State University-Northern,48.54101159,-109.6864751,1090
Montana Tech,Other,1,1,180416,Montana Technological University,46.01220856,-112.5570429,1844
Montclair State,NCAA DIII,0,1,185590,Montclair State University,40.85912495,-74.19854082,21115
Monterey Peninsula,Other,1,0,119067,Monterey Peninsula College,36.59140544,-121.8860959,8017
Montreat,Other,1,1,199032,Montreat College,35.64611656,-82.29905431,921
Moody Bible Institute,Other,0,1,147369,Moody Bible Institute,41.89779798,-87.63349089,3086
Moorpark,Other,1,1,119137,Moorpark College,34.30098638,-118.8358414,14357
Moraine Valley CC,Other,1,0,147378,Moraine Valley Community College,41.69459431,-87.83690238,13762
Moravian,NCAA DIII,1,1,214157,Moravian College,40.63088117,-75.38095683,2514
Morehead State,NCAA DI,1,1,157386,Morehead State University,38.1884461,-83.42975174,10195
Morehouse,NCAA DII,1,0,140553,Morehouse College,33.74796617,-84.4151314,2206
Morgan State,NCAA DI,1,1,163453,Morgan State University,39.34419245,-76.58419907,7712
Morningside,Other,1,1,154004,Morningside College,42.4732574,-96.36071383,2698
Morris,Other,1,0,218399,Morris College,33.93877686,-80.3461528,649
Mount Aloysius,NCAA DIII,1,0,214166,Mount Aloysius College,40.45968064,-78.60094578,1784
Mount Holyoke,NCAA DIII,0,1,166939,Mount Holyoke College,42.25755851,-72.57358444,2335
Mount Marty,Other,1,1,219198,Mount Marty College,42.87449656,-97.40991643,1044
Mount Mercy,Other,1,1,154013,Mount Mercy University,42.00191228,-91.65099175,1835
Mount St. Joseph,NCAA DIII,1,1,204200,Mount Saint Joseph University,39.09447111,-84.6401506,2162
Mount Saint Mary,NCAA DIII,0,1,193353,Mount Saint Mary College,41.51050981,-74.0121727,2352
Mount St. Mary's,NCAA DI,1,1,119173,Mount Saint Mary'S University,34.08509739,-118.482679,2965
Mount Vernon Nazarene,Other,1,1,204194,Mount Vernon Nazarene University,40.37382574,-82.47469626,2243
Mt. SAC,Other,1,1,119164,Mt San Antonio College,34.04616833,-117.8455776,29346
Muhlenberg,NCAA DIII,1,1,214175,Muhlenberg College,40.59752583,-75.50830624,2340
Multnomah,Other,1,1,209287,Multnomah University,45.52762179,-122.5756847,695
Murray State,NCAA DI,1,1,157401,Murray State University,36.61238306,-88.32349787,9454
Muskegon CC,Other,1,0,171304,Muskegon Community College,43.25036443,-86.19641848,4078
Muskingum,NCAA DIII,1,1,204264,Muskingum University,39.99660896,-81.7372045,2412
Nazareth,NCAA DIII,1,1,193584,Nazareth College,43.10148409,-77.51651803,2987
Nebraska Wesleyan,NCAA DIII,1,1,181446,Nebraska Wesleyan University,40.83911713,-96.64832419,2095
Neosho County CC,Other,1,1,155566,Neosho County Community College,37.67005717,-95.46466282,1968
Neumann,NCAA DIII,1,1,214272,Neumann University,39.87488673,-75.44000071,2598
New England College,NCAA DIII,1,0,182980,New England College,43.17701439,-71.82292212,2521
New Jersey City,NCAA DIII,1,1,185129,New Jersey City University,40.70995631,-74.08724113,7991
New Mexico Highlands,NCAA DII,1,1,187897,New Mexico Highlands University,35.59903008,-105.222847,3037
New Mexico JC,Other,1,1,187903,New Mexico Junior College,32.75764377,-103.1825153,2247
NMMI,Other,0,1,187912,New Mexico Military Institute,33.40942155,-104.5251821,412
New Mexico St.,NCAA DI,1,1,188030,New Mexico State University-Main Campus,32.28290392,-106.7478526,14289
St. Andrews,Other,1,1,440396,New Saint Andrews College,46.73196339,-117.0017379,198
NYU,NCAA DIII,1,1,193900,New York University,40.72946911,-73.99730059,51847
Newberry,NCAA DII,1,1,218414,Newberry College,34.28378211,-81.62071744,1208
Newman,NCAA DII,1,1,155335,Newman University,37.67229561,-97.37882585,3373
Niagara,NCAA DI,1,1,193973,Niagara University,43.13731452,-79.03666526,3763
Nicholls State,NCAA DI,1,1,159966,Nicholls State University,29.79266115,-90.80293217,6453
Nichols,NCAA DIII,1,0,167260,Nichols College,42.042441,-71.92962429,1592
Norco College,Other,0,1,460464,Norco College,33.91675169,-117.5699909,10875
Norfolk State,NCAA DI,1,1,232937,Norfolk State University,36.84846067,-76.2613351,5204
N. Carolina A&T,NCAA DI,1,1,199102,North Carolina A & T State University,36.07675773,-79.77016222,12142
N.C. Central,NCAA DI,1,1,199157,North Carolina Central University,35.97420365,-78.89855788,8207
NC State,NCAA DI,1,1,199193,North Carolina State University At Raleigh,35.78513463,-78.67448892,35479
North Carolina Wesleyan,NCAA DIII,1,1,199209,North Carolina Wesleyan College,36.01743698,-77.77211967,2034
North Central (Ill.),NCAA DIII,1,1,147660,North Central College,41.77464993,-88.14321945,2928
North Central Texas College,Other,1,1,224110,North Central Texas College,33.61821987,-97.16525275,10525
North Dakota State,NCAA DI,1,1,200332,North Dakota State University-Main Campus,46.89453002,-96.80572012,13796
North Greenville,NCAA DII,1,1,218441,North Greenville University,35.0698034,-82.37027192,2578
North Iowa Area CC,Other,1,1,154059,North Iowa Area Community College,43.15794459,-93.13174216,2995
North Park,NCAA DIII,1,1,147679,North Park University,41.9751108,-87.70912805,2900
East LA,Other,1,1,488730,Northeast Lakeview College,29.54579499,-98.32322322,5510
Northeastern,NCAA DI,1,1,167358,Northeastern University,42.34019327,-71.08802515,21627
Northern Arizona,NCAA DI,1,1,105330,Northern Arizona University,35.18889067,-111.6555179,31066
Northern Essex CC,Other,1,0,167376,Northern Essex Community College,42.79644767,-71.04739611,5233
Northern Illinois,NCAA DI,0,1,147703,Northern Illinois University,41.93381282,-88.76603315,17169
Northern Kentucky,NCAA DI,1,1,157447,Northern Kentucky University,39.02924825,-84.46599503,14764
Northern Michigan,NCAA DII,0,1,171456,Northern Michigan University,46.55802196,-87.40385679,7595
Northern State,NCAA DII,1,1,219259,Northern State University,45.45259,-98.4837247,3493
NVU-Lyndon,NCAA DIII,1,0,230913,Northern Vermont University,44.64171772,-72.67119678,2590
Northland,NCAA DIII,1,1,239512,Northland College,46.5790853,-90.87476386,582
Bushnell,Other,1,1,209409,Northwest Christian University,44.04747043,-123.0797567,800
Northwest Kansas,Other,1,0,155618,Northwest Kansas Technical College,39.34638739,-101.7002282,821
NW Missouri,NCAA DII,1,1,178624,Northwest Missouri State University,40.35448969,-94.88490896,6857
Northwest Nazarene,NCAA DII,1,1,142461,Northwest Nazarene University,43.56179403,-116.5666231,2201
Northwest U.,Other,1,1,236133,Northwest University,47.65784604,-122.1914507,1321
Northwestern (Iowa),Other,1,1,154101,Northwestern College,42.99892441,-96.05776564,1299
Northwestern Oklahoma,NCAA DII,1,1,207306,Northwestern Oklahoma State University,36.79611963,-98.66783107,1992
Northwestern St.,NCAA DI,1,1,160038,Northwestern State University Of Louisiana,31.75068859,-93.09766952,11081
Northwestern,NCAA DI,0,1,147767,Northwestern University,42.05837551,-87.67364828,22127
Northwood (Mich.),NCAA DII,1,1,171492,Northwood University,43.62897029,-84.27630226,3177
Norwich,NCAA DIII,1,1,230995,Norwich University,44.13793968,-72.65953114,3986
Notre Dame (Md.),NCAA DIII,0,1,163578,Notre Dame Of Maryland University,39.35128757,-76.61965561,2371
Nova Southeastern,NCAA DII,1,1,136215,Nova Southeastern University,26.07930092,-80.24250094,20435
Nyack,NCAA DII,1,1,194161,Nyack College,41.08636533,-73.93102192,2351
Oakland City,Other,1,1,152099,Oakland City University,38.33900006,-87.35156011,1419
Oakland CC,Other,1,1,171535,Oakland Community College,42.59543073,-83.24479624,15411
Oakland,NCAA DI,1,1,171571,Oakland University,42.67461449,-83.21637916,19309
Oberlin,NCAA DIII,1,1,204501,Oberlin College,41.29476191,-82.22179162,2812
Occidental,NCAA DIII,1,1,120254,Occidental College,34.12622847,-118.2107966,1930
Oglethorpe,NCAA DIII,1,1,140696,Oglethorpe University,33.87592607,-84.33470889,1264
Ohio Christian,Other,1,1,201964,Ohio Christian University,39.61089204,-82.90603508,3660
Ohio Dominican,NCAA DII,1,1,204617,Ohio Dominican University,39.99278378,-82.94072533,1716
Ohio Northern,NCAA DIII,1,1,204635,Ohio Northern University,40.76630698,-83.83062498,3039
Ohio State,NCAA DI,1,1,204796,Ohio State University-Main Campus,39.999484,-83.00875225,61170
Ohio,NCAA DI,1,1,204857,Ohio University-Main Campus,39.3237976,-82.10351287,28480
Ohio Wesleyan,NCAA DIII,1,1,204909,Ohio Wesleyan University,40.29660487,-83.06999158,1561
Oklahoma Baptist,NCAA DII,1,1,207403,Oklahoma Baptist University,35.35968857,-96.93172058,2011
Oklahoma Christian,NCAA DII,1,1,207324,Oklahoma Christian University,35.61141951,-97.46949692,2228
Oklahoma City,Other,1,1,207458,Oklahoma City University,35.49523052,-97.54125904,2773
Okla. Panhandle,Other,1,1,207351,Oklahoma Panhandle State University,36.59452579,-101.6384991,1262
Oklahoma State,NCAA DI,1,1,207388,Oklahoma State University-Main Campus,36.12309387,-97.06969982,24690
Oklahoma Wesleyan,Other,1,1,206835,Oklahoma Wesleyan University,36.71779968,-95.95414254,1096
Olivet,NCAA DIII,1,1,171599,Olivet College,42.44088958,-84.9228434,1098
Olivet Nazarene,Other,1,1,147828,Olivet Nazarene University,41.15620245,-87.87316274,4655
Olympic College,Other,1,1,236188,Olympic College,47.57496498,-122.6361081,6620
Onondaga CC,Other,1,0,194222,Onondaga Community College,43.00631326,-76.19614388,9834
Oral Roberts,NCAA DI,1,1,207582,Oral Roberts University,36.05066323,-95.95423183,4053
Orange Coast,Other,1,0,120342,Orange Coast College,33.67014838,-117.9114496,21122
Oregon Tech,Other,1,1,209506,Oregon Institute Of Technology,42.25714069,-121.7852122,5335
Oregon State,NCAA DI,0,1,209542,Oregon State University,44.56307639,-123.278677,30986
Ottawa,Other,1,1,155627,Ottawa University-Ottawa,38.60230202,-95.2641549,754
Ottawa (AZ),Other,1,1,105367,Ottawa University-Phoenix,33.57216139,-112.1130573,809
Otterbein,NCAA DIII,1,1,204936,Otterbein University,40.12541423,-82.93634208,2886
Ouachita Baptist,NCAA DII,1,1,107512,Ouachita Baptist University,34.12503619,-93.05248644,1660
Our Lady of the Lake,Other,1,1,227331,Our Lady Of The Lake University,29.42562547,-98.54395328,3149
Oxnard,Other,0,1,120421,Oxnard College,34.16471522,-119.1572875,7418
Ozark Christian College,Other,1,0,178679,Ozark Christian College,37.1052637,-94.51095351,608
Pace,NCAA DII,1,1,194310,Pace University,40.7116902,-74.00488518,13326
Pacific Lutheran,NCAA DIII,1,1,236230,Pacific Lutheran University,47.14547788,-122.4453762,3207
Pacific Union,Other,1,1,120865,Pacific Union College,38.57060051,-122.440286,1062
Pacific (Ore.),NCAA DIII,1,1,209612,Pacific University,45.52142298,-123.1087682,3938
Palm Beach Atlantic,NCAA DII,1,1,136330,Palm Beach Atlantic University,26.70471599,-80.05040908,3705
Paradise Valley,Other,1,1,364016,Paradise Valley Community College,33.65215722,-112.0098763,8115
Park U.,Other,1,1,178721,Park University,39.18944105,-94.67704288,11415
Pasadena,Other,1,0,121044,Pasadena City College,34.14458,-118.1181495,26862
Pasco-Hernando State College,Other,0,1,136400,Pasco-Hernando State College,28.27509384,-82.64670112,11525
Patrick Henry CC,Other,1,0,233019,Patrick Henry Community College,36.73788252,-79.87115001,2266
Paul Smith's,Other,1,0,194392,Paul Smiths College Of Arts And Science,44.43737963,-74.25296623,745
Penn State,NCAA DI,1,1,214777,Pennsylvania State University-Main Campus,40.80075636,-77.86166416,46810
PSU-Abington,NCAA DIII,1,0,214801,Pennsylvania State University-Penn State Abington,40.11699755,-75.11061201,3746
PSU-Berks,NCAA DIII,1,1,214704,Pennsylvania State University-Penn State Berks,40.35797171,-75.97212985,2578
PSU-Behrend,NCAA DIII,1,1,214591,Pennsylvania State University-Penn State Erie-Behrend College,42.1204419,-79.98138411,4312
PSU-Fayette,Other,1,1,214759,Pennsylvania State University-Penn State Fayette- Eberly,39.94718886,-79.65780376,640
PSU-Harrisburg,NCAA DIII,1,1,214713,Pennsylvania State University-Penn State Harrisburg,40.20519384,-76.74196463,4933
PSU-Schuylkill,Other,1,0,214810,Pennsylvania State University-Penn State Schuylkill,40.64257112,-76.16640851,609
Pensacola State College,Other,0,1,136473,Pensacola State College,30.48074192,-87.20065539,9773
Pepperdine,NCAA DI,1,1,121150,Pepperdine University,34.04166589,-118.7093808,7961
Peru State,Other,1,1,181534,Peru State College,40.47466298,-95.73275111,2114
Pfeiffer,NCAA DIII,1,1,199306,Pfeiffer University,35.48468831,-80.28319644,1365
Philander Smith,Other,1,1,107600,Philander Smith College,34.73791552,-92.2814929,1000
Piedmont,NCAA DIII,1,1,140818,Piedmont College,34.56659092,-83.5431771,2449
Pima CC,Other,1,1,105525,Pima Community College,32.22686564,-110.9851912,19594
Pittsburg St.,NCAA DII,1,1,155681,Pittsburg State University,37.39210099,-94.70247561,6625
Plymouth State,NCAA DIII,1,1,183080,Plymouth State University,43.757432,-71.69118057,5059
Point Loma,NCAA DII,0,1,121309,Point Loma Nazarene University,32.71683485,-117.2502407,4592
Point Park,Other,1,1,215442,Point Park University,40.43849641,-80.00147289,4099
Pomona-Pitzer,NCAA DIII,1,1,121345,Pomona College,34.09826998,-117.7119864,1573
Portland State,NCAA DI,1,1,209807,Portland State University,45.51172156,-122.6842306,25711
Post,NCAA DII,1,1,130183,Post University,41.53531734,-73.08055795,9845
Prairie View,NCAA DI,1,1,227526,Prairie View A & M University,30.09455568,-95.9920749,9516
Pratt CC,Other,1,0,155715,Pratt Community College,37.65396782,-98.71398573,1234
Pratt Institute,NCAA DIII,1,1,194578,Pratt Institute-Main,40.69114088,-73.96210421,5015
Presbyterian,NCAA DI,1,1,218539,Presbyterian College,34.46578439,-81.87443381,1330
Princeton,NCAA DI,1,1,186131,Princeton University,40.34710705,-74.65770072,8374
Principia,NCAA DIII,1,1,148016,Principia College,38.94896284,-90.35002079,447
Providence,NCAA DI,1,1,217402,Providence College,41.84421921,-71.43789102,4674
Purdue Fort Wayne,NCAA DI,1,1,151102,Purdue University Fort Wayne,41.11540652,-85.11174321,10139
Purdue Northwest,NCAA DII,1,1,490805,Purdue University Northwest,41.58034335,-87.47381113,10473
Purdue,NCAA DI,1,1,243780,Purdue University-Main Campus,40.42816184,-86.91439483,44474
Queens (N.C.),NCAA DII,1,1,199412,Queens University Of Charlotte,35.1889207,-80.83225974,2536
Quincy,NCAA DII,1,1,148131,Quincy University,39.94010083,-91.38680049,1086
Quinnipiac,NCAA DI,1,1,130226,Quinnipiac University,41.41888653,-72.89408913,10207
Radford,NCAA DI,1,1,233277,Radford University,37.13687986,-80.54974795,9335
Ramapo,NCAA DIII,1,1,186201,Ramapo College Of New Jersey,41.08091244,-74.17406392,6174
Randolph,NCAA DIII,1,1,199421,Randolph Community College,35.67277137,-79.82787911,2784
Ranger,Other,1,1,227687,Ranger College,32.45433168,-98.68621543,2414
Redlands CC,Other,1,1,207069,Redlands Community College,35.51845114,-97.97458049,1929
Regis (Mass.),NCAA DIII,1,1,167598,Regis College,42.35110764,-71.30911198,2757
Regis (Colo.),NCAA DII,1,1,127918,Regis University,39.78821329,-105.0307649,7907
Reinhardt,Other,1,1,140872,Reinhardt University,34.31888287,-84.55463723,1566
RPI,NCAA DIII,1,1,194824,Rensselaer Polytechnic Institute,42.72899074,-73.67871811,7895
RIC,NCAA DIII,1,1,217420,Rhode Island College,41.84261329,-71.46689937,7766
Rice,NCAA DI,1,1,227757,Rice University,29.71618692,-95.40501758,7124
Rider,NCAA DI,1,1,186283,Rider University,40.28054026,-74.73695561,4824
Ripon,NCAA DIII,1,1,239628,Ripon College,43.84239014,-88.84262677,807
Riverside,Other,1,1,121901,Riverside City College,33.97147568,-117.3805814,21292
Roanoke,NCAA DIII,1,1,233426,Roanoke College,37.29690752,-80.05640395,2014
Robert Morris,NCAA DI,0,1,215655,Robert Morris University,40.52068474,-80.2115426,4895
Roberts Wesleyan,NCAA DII,1,1,194958,Roberts Wesleyan College,43.12580054,-77.79852516,1739
Rochester (MI),Other,1,1,170967,Rochester College,42.66748596,-83.14497797,1098
RIT,NCAA DIII,1,1,195003,Rochester Institute Of Technology,43.08446667,-77.67381669,16463
Rockford University,NCAA DIII,0,1,148405,Rockford University,42.26961231,-89.01850751,1203
Rockhurst,NCAA DII,1,1,179043,Rockhurst University,39.03167622,-94.57150488,3145
Rocky Mountain,Other,1,1,180595,Rocky Mountain College,45.79657044,-108.554071,997
Roger Williams,NCAA DIII,1,1,217518,Roger Williams University,41.64820982,-71.2605902,4860
Rogers State,NCAA DII,1,1,207661,Rogers State University,36.31962017,-95.6357386,3633
Roosevelt,Other,1,1,148487,Roosevelt University,41.87605238,-87.62498668,4329
Rose-Hulman,NCAA DIII,1,1,152318,Rose-Hulman Institute Of Technology,39.4835504,-87.32369224,2142
Rowan,NCAA DIII,1,1,184782,Rowan University,39.71057605,-75.11853344,19465
Rutgers-Camden,NCAA DIII,1,0,186371,Rutgers University-Camden,39.94847261,-75.1209713,7171
Rutgers,NCAA DI,1,1,186380,Rutgers University-New Brunswick,40.49952527,-74.44702402,50254
Rutgers-Newark,NCAA DIII,1,1,186399,Rutgers University-Newark,40.74190405,-74.17491659,13451
Sacramento,Other,1,1,122180,Sacramento City College,38.54201349,-121.4900928,21379
Sacred Heart,NCAA DI,1,1,130253,Sacred Heart University,41.22155648,-73.24463847,8958
Saddleback,Other,1,1,122205,Saddleback College,33.55217274,-117.6658655,19421
Saginaw Valley,NCAA DII,1,1,172051,Saginaw Valley State University,43.51402795,-83.96274716,8515
St. Ambrose,Other,1,1,154235,Saint Ambrose University,41.54008272,-90.5809838,3045
St. Anselm,NCAA DII,1,1,183239,Saint Anselm College,42.98632857,-71.507965,2024
St. Augustine's,NCAA DII,1,1,199582,Saint Augustine'S University,35.78502108,-78.62176613,767
St. Cloud State,NCAA DII,0,1,174783,Saint Cloud State University,45.55326107,-94.15263759,13928
St. Edward's,NCAA DII,1,1,227845,Saint Edward'S University,30.22982114,-97.75765874,4301
Saint Francis University,NCAA DI,1,1,215743,Saint Francis University,40.5045719,-78.64086082,2611
St. John Fisher,NCAA DIII,1,1,195720,Saint John Fisher College,43.11743835,-77.51368296,3712
St. John's,NCAA DI,0,1,167677,Saint John'S Seminary,42.34411075,-71.16202333,143
St. John's (Minn.),NCAA DIII,1,0,174792,Saint Johns University,45.58135678,-94.39188627,1777
St. Joseph's (Me.),NCAA DIII,1,1,161518,Saint Joseph'S College Of Maine,43.82546771,-70.48149546,2106
St. Joseph's (Pa.),NCAA DI,1,1,215770,Saint Joseph'S University,39.99446145,-75.23832982,7589
Saint Leo,NCAA DII,1,1,137032,Saint Leo University,28.33682981,-82.25781563,11808
Saint Louis,NCAA DI,1,1,179159,Saint Louis University,38.63651556,-90.23339681,14438
Saint Martin's,NCAA DII,1,1,236452,Saint Martin'S University,47.0402328,-122.8149924,1607
St. Mary-of-the-Woods,Other,1,1,152381,Saint Mary-Of-The-Woods College,39.51056077,-87.46036,1035
St. Mary's (Ind.),NCAA DIII,0,1,152390,Saint Mary'S College,41.70814629,-86.25867601,1611
St. Mary's (Cal.),NCAA DI,1,1,123554,Saint Mary'S College Of California,37.84110877,-122.1084565,3881
Saint Mary's (Minn.),NCAA DIII,1,1,174817,Saint Mary'S University Of Minnesota,44.04523712,-91.69660444,5560
St. Michael's,NCAA DII,1,1,231059,Saint Michael'S College,44.49425143,-73.16316994,1950
St. Norbert,NCAA DIII,1,1,239716,Saint Norbert College,44.44481985,-88.0678031,2228
St. Peter's,NCAA DI,1,1,186432,Saint Peter'S University,40.72713991,-74.07154171,3452
St. Vincent (Pa.),NCAA DIII,1,1,215798,Saint Vincent College,40.29220226,-79.40205505,1867
St. Xavier,Other,1,1,148627,Saint Xavier University,41.70777246,-87.7135233,3667
Salem (W.V.),NCAA DII,1,1,237783,Salem University,39.28867933,-80.57178498,990
Salisbury,NCAA DIII,1,1,163851,Salisbury University,38.34539812,-75.6057469,8567
Salve Regina,NCAA DIII,0,1,217536,Salve Regina University,41.47153998,-71.30124215,2647
Sam Houston,NCAA DI,1,1,227881,Sam Houston State University,30.71350728,-95.54859731,21213
Samford,NCAA DI,1,1,102049,Samford University,33.46594876,-86.7922179,5619
San Bernardino Valley,Other,1,1,123527,San Bernardino Valley College,34.0882936,-117.3106379,13837
San Diego Christian,Other,1,1,112084,San Diego Christian College,32.84301345,-116.9777482,525
San Diego City College,Other,1,1,122339,San Diego City College,32.71885604,-117.1516654,15066
San Diego Mesa College,Other,1,1,122375,San Diego Mesa College,32.80476479,-117.1690081,22284
San Diego St.,NCAA DI,0,1,122409,San Diego State University,32.77523615,-117.0711871,35303
San Francisco St.,NCAA DII,1,1,122597,San Francisco State University,37.72135979,-122.4778872,29778
San Joaquin Delta,Other,1,1,122658,San Joaquin Delta College,37.99462956,-121.317247,18209
San Jose St.,NCAA DI,1,1,122755,San Jose State University,37.33751466,-121.8804929,35400
Santa Ana,Other,1,0,121619,Santa Ana College,33.7591557,-117.8883423,28425
Santa Clara,NCAA DI,1,1,122931,Santa Clara University,37.34934475,-121.9382811,8642
Santa Monica,Other,1,0,122977,Santa Monica College,34.01706768,-118.4712018,28800
Santa Rosa,Other,1,1,123013,Santa Rosa Junior College,38.45415818,-122.7207065,20000
Santiago Canyon,Other,1,0,399212,Santiago Canyon College,33.79549032,-117.7667686,11373
Sarah Lawrence,NCAA DIII,1,1,195304,Sarah Lawrence College,40.93418914,-73.84377711,1709
Sauk Valley CC,Other,0,1,148672,Sauk Valley Community College,41.81763579,-89.59650842,1628
SCAD Savannah,Other,1,1,140951,Savannah College Of Art And Design,32.0729,-81.094,14086
Savannah State,NCAA DII,1,1,140960,Savannah State University,32.02479434,-81.06339087,4077
Schreiner,NCAA DIII,1,1,228042,Schreiner University,30.02797076,-99.12967385,1418
Seattle Pacific,NCAA DII,1,1,236577,Seattle Pacific University,47.64920452,-122.362568,3688
Seattle U.,NCAA DI,1,1,236595,Seattle University,47.61017617,-122.3197331,7291
Seminole State College,Other,1,0,137209,Seminole State College Of Florida,28.74548174,-81.30555681,18104
Seton Hall,NCAA DI,1,1,186584,Seton Hall University,40.74287381,-74.24876568,10162
Seton Hill,NCAA DII,1,1,215947,Seton Hill University,40.30865341,-79.55621558,2297
Shaw,NCAA DII,1,1,199643,Shaw University,35.77119068,-78.63772621,1411
Shawnee State,Other,1,1,205443,Shawnee State University,38.73086657,-82.99531348,3253
Shenandoah,NCAA DIII,1,1,233541,Shenandoah University,39.16603151,-78.15836004,3817
Shippensburg,NCAA DII,1,1,216010,Shippensburg University Of Pennsylvania,40.06194799,-77.52199921,6381
Shorter,NCAA DII,1,1,140988,Shorter University,34.25821572,-85.19620752,1452
Siena,NCAA DI,1,1,195474,Siena College,42.71864304,-73.75101001,3221
Siena Heights,Other,1,1,172264,Siena Heights University,41.90577759,-84.01524484,2433
Sierra,Other,0,1,123341,Sierra College,38.79144402,-121.2114919,18314
Sierra Nevada,Other,1,0,182458,Sierra Nevada College,39.24430994,-119.9391121,889
Simmons,NCAA DIII,0,1,167783,Simmons University,42.33939907,-71.10000891,6082
Simpson (Iowa),NCAA DIII,1,1,154350,Simpson College,41.36552592,-93.56346568,1444
Slippery Rock,NCAA DII,1,1,216038,Slippery Rock University Of Pennsylvania,41.0609182,-80.05207727,8803
Smith,NCAA DIII,0,1,167835,Smith College,42.31797596,-72.6380477,2903
Soka,Other,1,1,399911,Soka University Of America,33.5554064,-117.7339298,442
Sonoma St.,NCAA DII,0,1,123572,Sonoma State University,38.34090353,-122.6758754,9459
South Carolina St.,NCAA DI,1,1,218733,South Carolina State University,33.4972475,-80.85125501,3022
South Dakota Mines,NCAA DII,1,1,219347,South Dakota School Of Mines And Technology,44.07544744,-103.2057088,2654
South Dakota St.,NCAA DI,1,1,219356,South Dakota State University,44.31944609,-96.78338643,12104
South Florida State College,Other,0,1,137315,South Florida State College,27.5695691,-81.50843167,2910
South Plains,Other,0,1,228158,South Plains College,33.57583383,-102.3662033,9310
Southeast CC,Other,1,0,181640,Southeast Community College Area,40.8157917,-96.60192636,9240
SE Missouri,NCAA DI,1,1,179557,Southeast Missouri State University,37.31575282,-89.52911086,11071
Southeastern CC,Other,1,1,199722,Southeastern Community College,34.33170729,-78.78339326,1448
SE Louisiana,NCAA DI,1,1,160612,Southeastern Louisiana University,30.51361056,-90.46852047,14298
Southeastern Oklahoma,NCAA DII,0,1,207847,Southeastern Oklahoma State University,34.00583169,-96.37568977,4542
Southeastern U.,Other,1,1,137564,Southeastern University,28.03181703,-81.91902311,8755
Southern Arkansas,NCAA DII,1,1,107983,Southern Arkansas University Main Campus,33.29114976,-93.23506648,4472
So. Conn. St.,NCAA DII,1,1,130493,Southern Connecticut State University,41.33181552,-72.94878712,10050
Southern Illinois,NCAA DI,1,1,149222,Southern Illinois University-Carbondale,37.71741306,-89.22121603,12817
SIU Edwardsville,NCAA DI,1,1,149231,Southern Illinois University-Edwardsville,38.79398019,-89.99782623,13281
SMU,NCAA DI,0,1,228246,Southern Methodist University,32.84526652,-96.7848868,11649
Southern Nazarene,NCAA DII,1,1,206862,Southern Nazarene University,35.5132864,-97.62949396,2081
SNHU,NCAA DII,1,1,183026,Southern New Hampshire University,43.03985105,-71.45397069,104068
Southern Oregon,Other,1,1,210146,Southern Oregon University,42.18573904,-122.694297,6278
Southern,NCAA DI,1,1,160621,Southern University And A & M College,30.52452463,-91.19010596,6693
Southern Utah,NCAA DI,1,1,230603,Southern Utah University,37.67466635,-113.0701093,10196
Southern Virginia,NCAA DIII,1,1,233611,Southern Virginia University,37.74067793,-79.3503282,1023
Southern Wesleyan,NCAA DII,1,1,217776,Southern Wesleyan University,34.72811505,-82.76159694,1551
Southwest Baptist,NCAA DII,1,1,179326,Southwest Baptist University,37.60157079,-93.41047888,3357
SW Minnesota St.,NCAA DII,1,1,175078,Southwest Minnesota State University,44.45451771,-95.75903776,7167
Southwest Virginia CC,Other,1,0,233648,Southwest Virginia Community College,37.00617776,-81.796703,2373
Southwestern Assemblies of God,Other,1,1,228325,Southwestern Assemblies Of God University,32.40444249,-96.8535139,2102
Southwestern,Other,0,1,123800,Southwestern College,32.64154589,-116.9971691,18569
Southwestern (Kan.),Other,1,1,155900,Southwestern College,37.24991415,-96.97782416,1514
Southwestern CC,Other,1,0,199731,Southwestern Community College,35.34858146,-83.20717811,2366
Southwestern Oklahoma,NCAA DII,0,1,207865,Southwestern Oklahoma State University,35.53621656,-98.70861625,5267
SW Oregon CC,Other,1,0,210155,Southwestern Oregon Community College,43.39535995,-124.2521971,2157
Southwestern (Tex.),NCAA DIII,1,1,228343,Southwestern University,30.63552768,-97.66618385,1434
Spalding,NCAA DIII,1,0,157757,Spalding University,38.24163524,-85.75881452,1758
Spartanburg Methodist,Other,1,0,218821,Spartanburg Methodist College,34.95405275,-81.97142172,869
Spokane CC,Other,1,1,236692,Spokane Community College,47.672442,-117.3611652,10375
Spring Arbor,Other,1,1,172334,Spring Arbor University,42.20621334,-84.55191426,3436
Spring Hill,NCAA DII,1,1,102234,Spring Hill College,30.69472369,-88.13820996,1379
Springfield,NCAA DIII,1,1,167899,Springfield College,42.10500698,-72.55567226,3139
St. Bonaventure,NCAA DI,1,1,195164,St Bonaventure University,42.08017924,-78.48302738,2379
St. Catherine (Minn.),NCAA DIII,0,1,175005,St Catherine University,44.92504271,-93.18224645,4859
St. Charles CC,Other,1,0,262031,St Charles Community College,38.7613059,-90.64153701,6269
St Clair County CC,Other,1,1,172291,St Clair County Community College,42.97954165,-82.42876312,3541
St. Francis (N.Y.),NCAA DI,1,1,195173,St Francis College,40.69323416,-73.99220395,2413
St. Lawrence,NCAA DIII,1,1,195216,St Lawrence University,44.58983408,-75.16132384,2522
St. Olaf,NCAA DIII,1,1,174844,St Olaf College,44.46193463,-93.183357,3048
St. Joseph's (L.I.),NCAA DIII,1,1,195562,St. Joseph'S College-Long Island,40.77567185,-73.02468886,4115
St. Joseph's (Bklyn),NCAA DIII,1,1,195544,St. Joseph'S College-New York,40.69034385,-73.96792905,1179
St. Louis Pharmacy,Other,1,1,179265,St. Louis College Of Pharmacy,38.63662409,-90.26166649,1195
St. Mary's (Md.),NCAA DIII,1,1,163912,St. Mary'S College Of Maryland,38.18859078,-76.42575407,1582
St. Thomas Aquinas,NCAA DII,1,1,195243,St. Thomas Aquinas College,41.04218999,-73.93684898,2000
St. Thomas (Fla.),Other,1,1,137476,St. Thomas University,25.92091007,-80.256286,4227
Stanford,NCAA DI,1,1,243744,Stanford University,37.4329822,-122.1750597,17381
New Paltz St.,NCAA DIII,1,1,196176,State University Of New York At New Paltz,41.73724503,-74.08877285,7608
Stephen F. Austin,NCAA DI,1,1,228431,Stephen F Austin State University,31.62245006,-94.64693077,13144
Sterling,Other,1,1,155937,Sterling College,38.21980839,-98.20991684,651
Stetson,NCAA DI,1,1,137546,Stetson University,29.03531964,-81.30059777,4341
Stevens Institute,NCAA DIII,1,1,186867,Stevens Institute Of Technology,40.74477389,-74.02532153,6929
Stevenson,NCAA DIII,1,1,164173,Stevenson University,39.42129791,-76.70125541,3615
Stillman,Other,1,1,102270,Stillman College,33.19944021,-87.58515434,797
Stockton,NCAA DIII,1,1,186876,Stockton University,39.49195106,-74.53259742,9621
Stonehill,NCAA DII,1,1,167996,Stonehill College,42.06144603,-71.0780796,2556
Stony Brook,NCAA DI,1,1,196097,Stony Brook University,40.91558412,-73.12107381,26256
Suffolk CC,Other,0,1,366395,Suffolk County Community College,40.84900738,-73.05619646,26078
Suffolk,NCAA DIII,1,1,168005,Suffolk University,42.35798969,-71.06096336,7186
Sul Ross St.,NCAA DIII,1,1,228501,Sul Ross State University,30.36276148,-103.6506704,2739
Albany,NCAA DI,1,1,196060,Suny At Albany,42.68691129,-73.82498978,17944
Fredonia,NCAA DIII,1,1,196158,Suny At Fredonia,42.45097311,-79.33613884,4655
Purchase,NCAA DIII,1,1,196219,Suny At Purchase College,41.04924683,-73.70190216,4234
SUNY Broome,Other,1,0,189547,Suny Broome Community College,42.13531444,-75.90921496,6507
Buffalo State,NCAA DIII,1,1,196130,Suny Buffalo State,42.93371977,-78.88073225,9118
Brockport St.,NCAA DIII,1,1,196121,Suny College At Brockport,43.21180826,-77.95146687,8287
SUNY Geneseo,NCAA DIII,1,1,196167,Suny College At Geneseo,42.79688351,-77.821971,5612
Old Westbury,NCAA DIII,1,1,196237,Suny College At Old Westbury,40.79666135,-73.57298561,5087
Oswego State,NCAA DIII,1,1,196194,Suny College At Oswego,43.45381364,-76.54390223,7986
Plattsburgh St.,NCAA DIII,1,1,196246,Suny College At Plattsburgh,44.69306276,-73.46670002,5704
Potsdam St.,NCAA DIII,1,1,196200,Suny College At Potsdam,44.66283499,-74.9768708,3521
SUNY Cobleskill,NCAA DIII,1,1,196033,Suny College Of Agriculture And Technology At Cobleskill,42.67433736,-74.4973353,2278
SUNY-ESF,Other,1,1,196103,Suny College Of Environmental Science And Forestry,43.03478905,-76.13875526,2220
Alfred State,NCAA DIII,1,1,196006,Suny College Of Technology At Alfred,42.25465021,-77.79921237,3737
SUNY Canton,NCAA DIII,1,1,196015,Suny College Of Technology At Canton,44.60594473,-75.18475031,3213
SUNY Delhi,NCAA DIII,1,1,196024,Suny College Of Technology At Delhi,42.27022082,-74.92458599,3232
Cortland St.,NCAA DIII,1,1,196149,Suny Cortland,42.59729562,-76.1918771,6858
SUNY Maritime,NCAA DIII,1,1,196291,Suny Maritime College,40.80919882,-73.80110634,1734
Morrisville State,NCAA DIII,1,1,196051,Suny Morrisville,42.89137971,-75.64318815,2986
Oneonta,NCAA DIII,1,1,196185,Suny Oneonta,42.46655088,-75.06418231,6543
SUNY Poly,NCAA DIII,1,1,196112,Suny Polytechnic Institute,43.13767454,-75.22979743,3023
Susquehanna,NCAA DIII,1,1,216278,Susquehanna University,40.79749375,-76.87536152,2396
Swarthmore,NCAA DIII,1,1,216287,Swarthmore College,39.90595426,-75.35159636,1559
Sweet Briar,NCAA DIII,0,1,233718,Sweet Briar College,37.55635056,-79.07973399,337
Syracuse,NCAA DI,1,1,196413,Syracuse University,43.03986563,-76.13265457,22803
Tabor,Other,1,1,155973,Tabor College,38.34842621,-97.19973879,713
Tallahassee CC,Other,1,1,137759,Tallahassee Community College,30.44386824,-84.33901369,11914
Tarleton State,NCAA DI,1,1,228529,Tarleton State University,32.21563731,-98.22007123,13109
Taylor,Other,1,1,152530,Taylor University,40.45833486,-85.49690214,2195
Temple,NCAA DI,1,1,216339,Temple University,39.98070923,-75.15841186,39740
Tennessee St.,NCAA DI,1,1,221838,Tennessee State University,36.16897747,-86.82935274,7774
Tennessee Tech,NCAA DI,1,1,221847,Tennessee Technological University,36.17460973,-85.50393559,10186
Tennessee Wesleyan,Other,1,1,221731,Tennessee Wesleyan University,35.44525018,-84.59256086,1008
Texas A&M-Int'l,NCAA DII,1,1,226152,Texas A & M International University,27.57349833,-99.43526088,7884
Texas A&M,NCAA DI,1,1,228723,Texas A & M University-College Station,30.61074886,-96.34919285,68679
TAMU-Commerce,NCAA DII,1,1,224554,Texas A & M University-Commerce,33.24381029,-95.90688246,12411
Texas A&M-CC,NCAA DI,1,1,224147,Texas A & M University-Corpus Christi,27.71353375,-97.3246458,11929
TAMU-Kingsville,NCAA DII,0,1,228705,Texas A & M University-Kingsville,27.52516743,-97.88242055,8541
TCU,NCAA DI,1,1,228875,Texas Christian University,32.70958202,-97.36151711,10918
Texas Lutheran,NCAA DIII,1,1,228981,Texas Lutheran University,29.57327772,-97.98463186,1443
Texas Southern,NCAA DI,1,1,229063,Texas Southern University,29.72245711,-95.36192631,9732
Texas State,NCAA DI,1,1,228459,Texas State University,29.88806269,-97.93917561,38644
Texas Tech,NCAA DI,1,1,229115,Texas Tech University,33.58049526,-101.8771104,38209
Texas Wesleyan,Other,1,1,229160,Texas Wesleyan University,32.733006,-97.27965252,2236
SCAD Atlanta,Other,1,1,138813,The Art Institute Of Atlanta,33.93599153,-84.35519854,1246
College of Idaho,Other,1,1,142294,The College Of Idaho,43.65257729,-116.6762692,964
TCNJ,NCAA DIII,1,1,187134,The College Of New Jersey,40.26873906,-74.77737293,7686
Monroe College (NR),Other,1,1,193645,The College Of New Rochelle,40.89939102,-73.78105963,2853
Saint Rose,NCAA DII,1,1,195234,The College Of Saint Rose,42.66408635,-73.7856266,3983
St. Scholastica,NCAA DIII,1,1,174899,The College Of Saint Scholastica,46.81542478,-92.1057177,4043
Wooster,NCAA DIII,1,1,206589,The College Of Wooster,40.81225632,-81.93307845,2004
The Master's,Other,1,1,117751,The Master'S University And Seminary,34.38173591,-118.5182106,2057
Sage,NCAA DIII,1,1,195128,The Sage Colleges,42.72833351,-73.69292633,2633
Alabama,NCAA DI,1,1,100751,The University Of Alabama,33.21437228,-87.54574613,38390
Findlay,NCAA DII,1,1,202763,The University Of Findlay,41.05443959,-83.65151082,4870
Montana,NCAA DI,1,1,180489,The University Of Montana,46.86104834,-113.9829295,10962
Montana Western,Other,1,1,180692,The University Of Montana-Western,45.20828418,-112.6392923,1508
Tampa,NCAA DII,1,1,137847,The University Of Tampa,27.94721226,-82.46553447,9333
Chattanooga,NCAA DI,1,1,221740,The University Of Tennessee-Chattanooga,35.04828368,-85.29985869,11638
Tennessee,NCAA DI,1,1,221759,The University Of Tennessee-Knoxville,35.9551091,-83.92966948,28894
Tennessee-Martin,NCAA DI,1,1,221768,The University Of Tennessee-Martin,36.34038539,-88.86423107,7048
UT-Arlington,NCAA DI,1,1,228769,The University Of Texas At Arlington,32.72917985,-97.11514636,47899
Texas,NCAA DI,1,1,228778,The University Of Texas At Austin,30.28380891,-97.73643977,51832
UT-Dallas,NCAA DIII,1,1,228787,The University Of Texas At Dallas,32.98948157,-96.74871454,28755
UTEP,NCAA DI,1,1,228796,The University Of Texas At El Paso,31.77172065,-106.5035897,25151
UTSA,NCAA DI,1,1,229027,The University Of Texas At San Antonio,29.58243099,-98.62139519,32264
UT-Tyler,NCAA DII,1,1,228802,The University Of Texas At Tyler,32.314821,-95.24927287,10206
UT-Permian Basin,NCAA DII,1,1,229018,The University Of Texas Of The Permian Basin,31.88953419,-102.3295945,5834
UT-Rio Grande Valley,NCAA DI,1,1,227368,The University Of Texas Rio Grande Valley,26.30659615,-98.17221025,28644
U. of the South,NCAA DIII,1,1,221519,The University Of The South,35.20447517,-85.91774001,1785
UVA-Wise,NCAA DII,1,1,233897,The University Of Virginia'S College At Wise,36.97145686,-82.55875432,2065
West Florida,NCAA DII,1,1,138354,The University Of West Florida,30.54918313,-87.21841668,12847
Thiel,NCAA DIII,1,1,216357,Thiel College,41.41200198,-80.3840961,742
Thomas College,NCAA DIII,1,1,161563,Thomas College,44.52404578,-69.6632936,1767
Jefferson (Pa.),NCAA DII,1,1,216366,Thomas Jefferson University,39.9477059,-75.15883838,7786
Thomas More,Other,1,1,157809,Thomas More College,39.02350722,-84.5668106,2253
Thomas (GA.),Other,1,1,141167,Thomas University,30.81566177,-83.96513852,1310
Tiffin,NCAA DII,1,1,206048,Tiffin University,41.11918801,-83.1835392,3045
Tougaloo,Other,1,1,176406,Tougaloo College,32.40269423,-90.1593559,736
Towson,NCAA DI,0,1,164076,Towson University,39.39298288,-76.61223334,22923
Transylvania,NCAA DIII,1,1,157818,Transylvania University,38.05294172,-84.49322424,987
Treasure Valley CC,Other,1,0,210234,Treasure Valley Community College,44.01922583,-116.9728858,1866
Trevecca Nazarene,NCAA DII,1,1,221892,Trevecca Nazarene University,36.14250439,-86.75288522,3927
Trine,NCAA DIII,1,1,152567,Trine University,41.63338336,-85.00564965,4320
Trinity Bible College,Other,0,1,200484,Trinity Bible College And Graduate School,46.00104712,-98.51787738,253
Trinity Christian,Other,1,1,149505,Trinity Christian College,41.66921017,-87.78417401,1131
Trinity (Conn.),NCAA DIII,1,1,130590,Trinity College,41.7467725,-72.68870221,2235
Trinity (Tex.),NCAA DIII,1,1,229267,Trinity University,29.46285739,-98.482543,2637
Troy,NCAA DI,1,1,102368,Troy University,31.80015878,-85.95022576,16981
Truett-McConnell,Other,1,1,141237,Truett Mcconnell University,34.59620541,-83.74887901,3001
Tufts,NCAA DIII,1,1,168148,Tufts University,42.40598486,-71.12065019,11586
Tulane,NCAA DI,1,1,160755,Tulane University Of Louisiana,29.93971932,-90.12038268,12646
Tusculum,NCAA DII,1,1,221953,Tusculum University,36.1725339,-82.76168418,1735
Tuskegee,NCAA DII,1,1,102377,Tuskegee University,32.43097709,-85.71034656,3026
Umpqua CC,Other,1,1,210270,Umpqua Community College,43.29021217,-123.3318874,2703
Union (Ky.),Other,1,1,157863,Union College,36.86913426,-83.88774815,1333
Union (N.Y.),NCAA DIII,1,1,196866,Union College,42.81760007,-73.92854092,2197
Union CC,Other,1,0,187198,Union County College,40.66779541,-74.31978734,9412
Union (Tenn.),NCAA DII,1,1,221971,Union University,35.6768671,-88.85852571,3247
Air Force,NCAA DI,1,1,128328,United States Air Force Academy,39.00889782,-104.8854094,4336
Coast Guard,NCAA DIII,1,1,130624,United States Coast Guard Academy,41.37028438,-72.0988026,1071
USMMA,NCAA DIII,1,1,197027,United States Merchant Marine Academy,40.8121323,-73.76257919,1015
Army West Point,NCAA DI,1,1,197036,United States Military Academy,41.39086602,-73.95681547,4589
Navy,NCAA DI,1,1,164155,United States Naval Academy,38.98055003,-76.48167159,4512
Buffalo,NCAA DI,1,1,196088,University At Buffalo,43.00104209,-78.78960889,31503
Akron,NCAA DI,0,1,200800,University Of Akron Main Campus,41.07778868,-81.51032422,18731
UAB,NCAA DI,0,1,100663,University Of Alabama At Birmingham,33.50227655,-86.80916919,21923
Alabama-Huntsville,NCAA DII,1,1,100706,University Of Alabama In Huntsville,34.72277847,-86.63840757,9736
Alaska Anchorage,NCAA DII,1,1,102553,University Of Alaska Anchorage,61.18955943,-149.8260897,14644
Alaska Fairbanks,NCAA DII,1,1,102614,University Of Alaska Fairbanks,64.85561122,-147.8259607,7404
Arkansas,NCAA DI,1,1,106397,University Of Arkansas,36.0655948,-94.17789142,27778
Arkansas-Little Rock,NCAA DI,1,1,106245,University Of Arkansas At Little Rock,34.72349957,-92.34054075,10515
Arkansas-Monticello,NCAA DII,1,1,106485,University Of Arkansas At Monticello,33.58978307,-91.81296947,3111
